site_id,site_name,site_type,sector,primary_product,province,latitude,longitude,area_ha,capacity_annual,capacity_annual_tonnes,technology,parent_company,cbam_product_type,source_name,source_url,retrieved_date
inalum-asahan,Inalum Asahan,standalone,aluminium,primary_aluminium,North Sumatra,2.703,99.243,,250000 TPA,250000.0,Hall-Heroult,Indonesia Asahan Aluminium (Inalum),aluminium,PT Inalum company profile,https://www.inalum.id/en/page/profile-perusahaan,2026-04-17
freeport-smelter-gresik,Freeport Smelter Gresik,standalone,aluminium,copper_cathode,East Java,-7.161,112.654,,300000 TPA,300000.0,Flash Smelting,Freeport Indonesia / Inalum,aluminium,Freeport Indonesia Manyar smelter press release,https://ptfi.co.id/en/news/manyar-smelter-inauguration,2026-04-17
pupuk-kaltim-bontang,Pupuk Kaltim Bontang,standalone,fertilizer,urea,East Kalimantan,0.121,117.500,,2400000 TPA,2400000.0,Ammonia Synthesis,Pupuk Indonesia Group,fertilizer,Pupuk Kaltim company profile,https://www.pupukkaltim.com/en/company-profile,2026-04-17
pupuk-sriwidjaja-palembang,Pupuk Sriwidjaja Palembang,standalone,fertilizer,urea,South Sumatra,-2.990,104.757,,2000000 TPA,2000000.0,Ammonia Synthesis,Pupuk Indonesia Group,fertilizer,Pupuk Sriwidjaja company profile,https://pusri.co.id/en/company-profile/,2026-04-17
petrokimia-gresik,Petrokimia Gresik,standalone,fertilizer,urea,East Java,-7.151,112.651,,3400000 TPA,3400000.0,Ammonia Synthesis,Pupuk Indonesia Group,fertilizer,Petrokimia Gresik company profile,https://petrokimia-gresik.com/en/about-us/company-profile,2026-04-17
