[{"lon": 96.18205, "lat": 4.33946, "name": "KARYA TANAH SUBUR, PT", "province": "ACEH", "district": "ACEH BARAT"}, {"lon": 95.584877, "lat": 5.363291, "name": "ILHAS JASA BERSAMA, PT", "province": "ACEH", "district": "ACEH BESAR"}, {"lon": 95.264608, "lat": 5.498992, "name": "LHOKNGA BETON, PT", "province": "ACEH", "district": "ACEH BESAR"}, {"lon": 98.030724, "lat": 2.246916, "name": "DELIMA MAKMUR, PT", "province": "ACEH", "district": "ACEH SINGKIL"}, {"lon": 98.15246, "lat": 4.29073, "name": "MOPOLI RAYA, PT", "province": "ACEH", "district": "ACEH TAMIANG"}, {"lon": 98.06387, "lat": 4.20147, "name": "SISIRAU, PT", "province": "ACEH", "district": "ACEH TAMIANG"}, {"lon": 98.04271, "lat": 4.18587, "name": "TRI AGRO PALMA TAMIANG, PT", "province": "ACEH", "district": "ACEH TAMIANG"}, {"lon": 96.87675476, "lat": 4.482648317, "name": "JAYA MEDIA INTERNUSA", "province": "ACEH", "district": "ACEH TENGAH"}, {"lon": 97.03347, "lat": 5.23074, "name": "PUPUK ISKANDAR MUDA, PT", "province": "ACEH", "district": "ACEH UTARA"}, {"lon": 100.0177023, "lat": -0.1545742, "name": "AMP PLANTATION, PT", "province": "SUMATERA BARAT", "district": "AGAM"}, {"lon": 100.36636, "lat": -0.27848, "name": "CAHAYA AGAM LESTARI", "province": "SUMATERA BARAT", "district": "AGAM"}, {"lon": 99.8769, "lat": -0.31897, "name": "MUTIARA AGAM, PT", "province": "SUMATERA BARAT", "district": "AGAM"}, {"lon": 128.10166, "lat": -3.70552, "name": "ARABIKATAMA KHATULISTIWA FISHING INDUSTRY, PT", "province": "MALUKU", "district": "AMBON"}, {"lon": 99.39287, "lat": 2.77055, "name": "AGRINDO INDAH PERSADA, PT", "province": "SUMATERA UTARA", "district": "ASAHAN"}, {"lon": 99.61758, "lat": 2.70915, "name": "AGRO SERASI LESTARI, PT", "province": "SUMATERA UTARA", "district": "ASAHAN"}, {"lon": 99.80254, "lat": 2.96239, "name": "CITRA SAWIT INDAH LESTARI, PT", "province": "SUMATERA UTARA", "district": "ASAHAN"}, {"lon": 99.42774, "lat": 2.67156, "name": "DJAJA PUTRA INDONESIA, PT", "province": "SUMATERA UTARA", "district": "ASAHAN"}, {"lon": 99.470683, "lat": 2.749235, "name": "GUNUNG MELAYU, PT", "province": "SUMATERA UTARA", "district": "ASAHAN"}, {"lon": 99.735384, "lat": 2.91974, "name": "JAMPALAN BARU, PT", "province": "SUMATERA UTARA", "district": "ASAHAN"}, {"lon": 99.618262, "lat": 2.784405, "name": "KARYA MITRA ANDALAN, PT", "province": "SUMATERA UTARA", "district": "ASAHAN"}, {"lon": 99.4053, "lat": 2.5371, "name": "PADASA ENAM UTAMA, PT", "province": "SUMATERA UTARA", "district": "ASAHAN"}, {"lon": 99.253888, "lat": 2.7830555, "name": "PRIMA PALM LATEX INDUSTRI, PT", "province": "SUMATERA UTARA", "district": "ASAHAN"}, {"lon": 99.73408, "lat": 2.92198, "name": "PUTRA MANDIRI, CV", "province": "SUMATERA UTARA", "district": "ASAHAN"}, {"lon": 99.3558, "lat": 2.4726, "name": "SAUDARA SEJATI LUHUR, PT", "province": "SUMATERA UTARA", "district": "ASAHAN"}, {"lon": 99.6145, "lat": 2.766242, "name": "SAWIT ASAHAN TETAP UTUH, PT", "province": "SUMATERA UTARA", "district": "ASAHAN"}, {"lon": 99.44356, "lat": 2.79851, "name": "SAWITA INTER PERKASA, PT", "province": "SUMATERA UTARA", "district": "ASAHAN"}, {"lon": 99.72245, "lat": 2.9952, "name": "SEJAHTERA, CV", "province": "SUMATERA UTARA", "district": "ASAHAN"}, {"lon": 99.7066, "lat": 2.92477, "name": "SINTONG ABADI, PT", "province": "SUMATERA UTARA", "district": "ASAHAN"}, {"lon": 99.642777, "lat": 2.964166, "name": "SRI SUMATERA SEJAHTERA, PT", "province": "SUMATERA UTARA", "district": "ASAHAN"}, {"lon": 99.633888, "lat": 2.9636111, "name": "WIPOLIMEX RAYA, PT", "province": "SUMATERA UTARA", "district": "ASAHAN"}, {"lon": 115.13291, "lat": -8.63132, "name": "BALI MODA BUSANA, PT", "province": "BALI", "district": "BADUNG"}, {"lon": 115.1970685, "lat": -8.788598181, "name": "COCO ROTI", "province": "BALI", "district": "BADUNG"}, {"lon": 115.172777, "lat": -8.638726, "name": "DELIGHTING RAYA BALI, PT", "province": "BALI", "district": "BADUNG"}, {"lon": 115.173811, "lat": -8.783282, "name": "KARYA BETON SUDHIRA, PT", "province": "BALI", "district": "BADUNG"}, {"lon": 115.2171528, "lat": -8.5420785, "name": "KARYA TANGAN INDAH, PT <GUNAWAN>", "province": "BALI", "district": "BADUNG"}, {"lon": 115.10132, "lat": -8.38322, "name": "KING TRADING, PT", "province": "BALI", "district": "BADUNG"}, {"lon": 115.1681972, "lat": -8.737838789, "name": "LEGONG BERKARYA", "province": "BALI", "district": "BADUNG"}, {"lon": 115.2254945, "lat": -8.629812956, "name": "MINISTRY OF BAKERY", "province": "BALI", "district": "BADUNG"}, {"lon": 115.16193, "lat": -8.67163, "name": "MITRA SEJATI, CV", "province": "BALI", "district": "BADUNG"}, {"lon": 115.14024, "lat": -8.65882, "name": "PANTAI KAYU AYU, PT", "province": "BALI", "district": "BADUNG"}, {"lon": 115.1704029, "lat": -8.738252, "name": "SATRIA PANGAN SEJATI, PT", "province": "BALI", "district": "BADUNG"}, {"lon": 115.1143116, "lat": -8.646630564, "name": "SPA FAKTORI BALI", "province": "BALI", "district": "BADUNG"}, {"lon": 115.1728427, "lat": -8.727817577, "name": "TAN'S BAKERY", "province": "BALI", "district": "BADUNG"}, {"lon": 115.2132, "lat": -8.3149, "name": "TRI HITA CITRA PERSADA", "province": "BALI", "district": "BADUNG"}, {"lon": 115.175766, "lat": -8.633379, "name": "WARISAN EURINDO, PT", "province": "BALI", "district": "BADUNG"}, {"lon": 115.115, "lat": -8.333, "name": "WIHADI JAYA, PT", "province": "BALI", "district": "BADUNG"}, {"lon": 115.1857, "lat": -8.3854, "name": "YMB FURNITURE, CV", "province": "BALI", "district": "BADUNG"}, {"lon": 116.5012, "lat": -1.1618, "name": "AIR KRISTAL LESTARI, PT", "province": "KALIMANTAN TIMUR", "district": "BALIKPAPAN"}, {"lon": 116.83331, "lat": 1.26954, "name": "ALLESIA INTERNATIONAL, PT / AIR MINUM CLUB, PT", "province": "KALIMANTAN TIMUR", "district": "BALIKPAPAN"}, {"lon": 116.97807, "lat": -1.19932, "name": "BOGA JAYA, CV", "province": "KALIMANTAN TIMUR", "district": "BALIKPAPAN"}, {"lon": 116.52119, "lat": -1.152, "name": "BORINDO REKATAMA, PT", "province": "KALIMANTAN TIMUR", "district": "BALIKPAPAN"}, {"lon": 116.8488898, "lat": -1.1750712, "name": "BUMI INTAN GEMILANG, PT", "province": "KALIMANTAN TIMUR", "district": "BALIKPAPAN"}, {"lon": 116.95551, "lat": 1.23327, "name": "DUMA NUSATAMA, PT", "province": "KALIMANTAN TIMUR", "district": "BALIKPAPAN"}, {"lon": 116.87648, "lat": -1.20508, "name": "INDRA INTERNATIONAL INDONESIA, PT", "province": "KALIMANTAN TIMUR", "district": "BALIKPAPAN"}, {"lon": 116.92, "lat": -1.2574, "name": "KALTIM HOUTEN, PT", "province": "KALIMANTAN TIMUR", "district": "BALIKPAPAN"}, {"lon": 116.472, "lat": -1.104, "name": "KUTAI REFINERY NUSANTARA, PT", "province": "KALIMANTAN TIMUR", "district": "BALIKPAPAN"}, {"lon": 116.9463059, "lat": -1.2406081, "name": "LIEBHERR INDONESIA PERKASA, PT", "province": "KALIMANTAN TIMUR", "district": "BALIKPAPAN"}, {"lon": 116.5119, "lat": -1.1032, "name": "MULIA JAYA MANDIRI, PT", "province": "KALIMANTAN TIMUR", "district": "BALIKPAPAN"}, {"lon": 116.9294952, "lat": -1.2507945, "name": "OSSIANA SAKTI EKAMAJU, PT", "province": "KALIMANTAN TIMUR", "district": "BALIKPAPAN"}, {"lon": 116.81731, "lat": -1.20333, "name": "SANGGAR SARANA BAJA, PT", "province": "KALIMANTAN TIMUR", "district": "BALIKPAPAN"}, {"lon": 116.9565, "lat": -1.23341, "name": "SUMBER KALIMANTAN ABADI, PT", "province": "KALIMANTAN TIMUR", "district": "BALIKPAPAN"}, {"lon": 116.9505634, "lat": -1.2370887, "name": "SURYA BIRU MURNI ACETYLENE, PT", "province": "KALIMANTAN TIMUR", "district": "BALIKPAPAN"}, {"lon": 116.89646, "lat": 1.25258, "name": "TEDMONNINDO PRATAMASEMESTA, UD", "province": "KALIMANTAN TIMUR", "district": "BALIKPAPAN"}, {"lon": 116.85308, "lat": -1.16293, "name": "TJOKRO BERSAUDARA BALIKPAPANINDO, PT", "province": "KALIMANTAN TIMUR", "district": "BALIKPAPAN"}, {"lon": 105.3240723, "lat": -5.4257197, "name": "AGRI LESTARI NUSANTARA", "province": "LAMPUNG", "district": "BANDAR LAMPUNG"}, {"lon": 105.3268987, "lat": -5.4254246, "name": "AMAN JAYA PERDANA, PT", "province": "LAMPUNG", "district": "BANDAR LAMPUNG"}, {"lon": 105.3300789, "lat": -5.5013295, "name": "DAYA RADAR UTAMA, PT", "province": "LAMPUNG", "district": "BANDAR LAMPUNG"}, {"lon": 105.2921623, "lat": -5.4111147, "name": "GOLDEN SARI, PT", "province": "LAMPUNG", "district": "BANDAR LAMPUNG"}, {"lon": 105.0879892, "lat": -5.296545, "name": "GRAMER, PT", "province": "LAMPUNG", "district": "BANDAR LAMPUNG"}, {"lon": 105.2006975, "lat": -5.3939824, "name": "KARYA JAYA, CV", "province": "LAMPUNG", "district": "BANDAR LAMPUNG"}, {"lon": 105.2860909, "lat": -5.3889273, "name": "KENCANA INTAN METALINDO", "province": "LAMPUNG", "district": "BANDAR LAMPUNG"}, {"lon": 105.3290629, "lat": -5.4219569, "name": "RATU POLA BUMI, PT", "province": "LAMPUNG", "district": "BANDAR LAMPUNG"}, {"lon": 105.31622, "lat": -5.4594, "name": "SEMEN BATURAJA, PT", "province": "LAMPUNG", "district": "BANDAR LAMPUNG"}, {"lon": 105.3223233, "lat": -5.4155664, "name": "SUMBER ORGANIK, CV", "province": "LAMPUNG", "district": "BANDAR LAMPUNG"}, {"lon": 105.31117, "lat": -5.45468, "name": "TUNAS BARU LAMPUNG, PT TBK", "province": "LAMPUNG", "district": "BANDAR LAMPUNG"}, {"lon": 105.2987836, "lat": -5.410141, "name": "VISI PRIMA ARTHA", "province": "LAMPUNG", "district": "BANDAR LAMPUNG"}, {"lon": 107.56415, "lat": -6.948189995, "name": "ABADI MAJU INDAH JAYA", "province": "JAWA BARAT", "district": "BANDUNG"}, {"lon": 107.5665, "lat": -6.930210016, "name": "ADE PLASTIC PRATAMA", "province": "JAWA BARAT", "district": "BANDUNG"}, {"lon": 107.74096, "lat": -7.04862, "name": "ALBESTA, CV", "province": "JAWA BARAT", "district": "BANDUNG"}, {"lon": 107.607009, "lat": -7.015832, "name": "ALFA SARANA INSANI, PT <HARA", "province": "JAWA BARAT", "district": "BANDUNG"}, {"lon": 107.6755258, "lat": -6.961645737, "name": "ALIREKA CIPTA LASINDO", "province": "JAWA BARAT", "district": "BANDUNG"}, {"lon": 107.7105, "lat": -6.9252, "name": "ALTINEX, PT", "province": "JAWA BARAT", "district": "BANDUNG"}, {"lon": 107.74891, "lat": -7.00761, "name": "AMARTEX, PT", "province": "JAWA BARAT", "district": "BANDUNG"}, {"lon": 107.355, "lat": -7.04542, "name": "ANATA NUSINDO", "province": "JAWA BARAT", "district": "BANDUNG"}, {"lon": 107.3549, "lat": -6.5647, "name": "ANEKA KREASI PANGAN", "province": "JAWA BARAT", "district": "BANDUNG"}, {"lon": 107.6461824, "lat": -6.910116287, "name": "ANEKA PRODUKSI ERAMURNI", "province": "JAWA BARAT", "district": "BANDUNG"}, {"lon": 107.57051, "lat": -6.94316, "name": "ANGCONA MESTIKA UNISOLE, CV", "province": "JAWA BARAT", "district": "BANDUNG"}, {"lon": 107.65409, "lat": -7.0012, "name": "ANGGANA KURNIA PUTRA", "province": "JAWA BARAT", "district": "BANDUNG"}, {"lon": 107.5785, "lat": -6.95346, "name": "ANTUSA MITRA ABADI, PT", "province": "JAWA BARAT", "district": "BANDUNG"}, {"lon": 107.3433, "lat": -6.5954, "name": "ANUGERAH ABADI, CV", "province": "JAWA BARAT", "district": "BANDUNG"}, {"lon": 107.56826, "lat": -6.955039979, "name": "ANUGERAH JAYA ABADI", "province": "JAWA BARAT", "district": "BANDUNG"}, {"lon": 107.5745784, "lat": -6.926785941, "name": "ANUGERAH KARYA NYATA", "province": "JAWA BARAT", "district": "BANDUNG"}, {"lon": 107.5974557, "lat": -6.9164953, "name": "ANUGRAH", "province": "JAWA BARAT", "district": "BANDUNG"}, {"lon": 107.57587, "lat": -6.938235, "name": "ANUGRAH ABADI, CV", "province": "JAWA BARAT", "district": "BANDUNG"}, {"lon": 107.5695951, "lat": -6.93728495, "name": "ANUGRAH DAMAI ABADI", "province": "JAWA BARAT", "district": "BANDUNG"}, {"lon": 107.619134, "lat": -6.976371, "name": "APOLLO AGUNG CHEMICAL INDUSTRY", "province": "JAWA BARAT", "district": "BANDUNG"}, {"lon": 107.5725305, "lat": -6.931757146, "name": "ARJUNA PLASTIK", "province": "JAWA BARAT", "district": "BANDUNG"}, {"lon": 107.5635, "lat": -6.9194, "name": "ARYA DUTA, CV", "province": "JAWA BARAT", "district": "BANDUNG"}, {"lon": 107.7024072, "lat": -6.930861978, "name": "ASIA BARU PLASTIK, PT", "province": "JAWA BARAT", "district": "BANDUNG"}, {"lon": 107.563552, "lat": -6.955405, "name": "ASIA JAYA BERSAMA PLASTIK, CV", "province": "JAWA BARAT", "district": "BANDUNG"}, {"lon": 107.563523, "lat": -6.956252, "name": "ASIA JAYA BERSAMA PLASTIK, CV", "province": "JAWA BARAT", "district": "BANDUNG"}, {"lon": 107.57599, "lat": -6.92833, "name": "ATARI PLASTIK", "province": "JAWA BARAT", "district": "BANDUNG"}, {"lon": 107.5713261, "lat": -6.946861559, "name": "AVANTI RAGAM SUKSES, PT", "province": "JAWA BARAT", "district": "BANDUNG"}, {"lon": 107.769154, "lat": -6.956145, "name": "AXAN TEKSTIL, PT", "province": "JAWA BARAT", "district": "BANDUNG"}, {"lon": 107.73654, "lat": -7.04585, "name": "BAGUS JAYATEX, CV/CITA BAHANA INTI, CV", "province": "JAWA BARAT", "district": "BANDUNG"}, {"lon": 107.56971, "lat": -6.94392, "name": "BANDUNG INDAH GEMILANG, PT", "province": "JAWA BARAT", "district": "BANDUNG"}, {"lon": 107.59614, "lat": -6.911609986, "name": "BANGUN SEHAT JAYA", "province": "JAWA BARAT", "district": "BANDUNG"}, {"lon": 107.77023, "lat": -7.04531, "name": "BAROKAH, PT", "province": "JAWA BARAT", "district": "BANDUNG"}, {"lon": 107.5979, "lat": -6.923300017, "name": "BERKAT POLAR KREASITAMA", "province": "JAWA BARAT", "district": "BANDUNG"}, {"lon": 107.795998, "lat": -6.966012, "name": "BERONICA, PT", "province": "JAWA BARAT", "district": "BANDUNG"}, {"lon": 107.573756, "lat": -6.943682542, "name": "BERSAMA CIPTA MANDIRI", "province": "JAWA BARAT", "district": "BANDUNG"}, {"lon": 107.660977, "lat": -7.023656, "name": "BIG GOLDEN BELL, PT", "province": "JAWA BARAT", "district": "BANDUNG"}, {"lon": 107.62028, "lat": -6.926759983, "name": "BIMA JAYA", "province": "JAWA BARAT", "district": "BANDUNG"}, {"lon": 107.748436, "lat": -7.05052, "name": "BIMA JAYA, CV", "province": "JAWA BARAT", "district": "BANDUNG"}, {"lon": 107.59507, "lat": -6.90958999, "name": "BIMA TIRTA", "province": "JAWA BARAT", "district": "BANDUNG"}, {"lon": 107.59394, "lat": -6.946770017, "name": "BINACITRA KHARISMA LESTARI", "province": "JAWA BARAT", "district": "BANDUNG"}, {"lon": 107.73198, "lat": -7.04799, "name": "BINTANG BARU SENTOSA, PT", "province": "JAWA BARAT", "district": "BANDUNG"}, {"lon": 107.570886, "lat": -6.942071, "name": "BINTANG CAHAYA BARU, PT", "province": "JAWA BARAT", "district": "BANDUNG"}, {"lon": 107.82582, "lat": -7.06672, "name": "BINTANG INDOSPIN INDUSTRI", "province": "JAWA BARAT", "district": "BANDUNG"}, {"lon": 107.7429, "lat": -7.07512, "name": "BINTANG MAS, PT", "province": "JAWA BARAT", "district": "BANDUNG"}, {"lon": 107.776951, "lat": -7.050033, "name": "BINTANG USAHA NASIONAL, PT", "province": "JAWA BARAT", "district": "BANDUNG"}, {"lon": 107.57498, "lat": -6.95204, "name": "BLESSINDO, PT", "province": "JAWA BARAT", "district": "BANDUNG"}, {"lon": 107.58, "lat": -7.0463, "name": "BUANA INTAN GEMILANG", "province": "JAWA BARAT", "district": "BANDUNG"}, {"lon": 107.807668, "lat": -6.965633, "name": "BUDI AGUNG SENTOSA, PT", "province": "JAWA BARAT", "district": "BANDUNG"}, {"lon": 107.69361, "lat": -6.92988, "name": "BUDI MANDIRI PERKASA", "province": "JAWA BARAT", "district": "BANDUNG"}, {"lon": 107.42712, "lat": -6.5541, "name": "BUSANA CEMERLANG GARMENT INDUSTRI", "province": "JAWA BARAT", "district": "BANDUNG"}, {"lon": 107.578573, "lat": -6.937296, "name": "CAHAYA BERLIAN LESTARI, PT", "province": "JAWA BARAT", "district": "BANDUNG"}, {"lon": 107.575202, "lat": -6.950814664, "name": "CAHAYA BINTANG LAUT, CV", "province": "JAWA BARAT", "district": "BANDUNG"}, {"lon": 107.581856, "lat": -6.894856, "name": "CAHAYA TERANG GEMILANG GROUP", "province": "JAWA BARAT", "district": "BANDUNG"}, {"lon": 107.58869, "lat": -6.909409988, "name": "CAHYANA KARYA", "province": "JAWA BARAT", "district": "BANDUNG"}, {"lon": 107.4511, "lat": -6.5644, "name": "CATUR KARTIKA JAYA, PT", "province": "JAWA BARAT", "district": "BANDUNG"}, {"lon": 107.753235, "lat": -6.945519, "name": "CELEBIT CIRCUIT TECHNOLOGY INDONESIA", "province": "JAWA BARAT", "district": "BANDUNG"}, {"lon": 107.5654204, "lat": -6.935978386, "name": "CEMERLANG PLASTIK", "province": "JAWA BARAT", "district": "BANDUNG"}, {"lon": 107.5498401, "lat": -6.927674951, "name": "CENTRAL CAHAYA CEMERLANG", "province": "JAWA BARAT", "district": "BANDUNG"}, {"lon": 107.59355, "lat": -6.92073, "name": "CETAK CEPAT SEJAHTERA", "province": "JAWA BARAT", "district": "BANDUNG"}, {"lon": 107.56972, "lat": -6.998642, "name": "CHIAYO SEHAT INDONESIA", "province": "JAWA BARAT", "district": "BANDUNG"}, {"lon": 107.60938, "lat": -6.904200007, "name": "CHRISTIANTO ADIWIDJAJA", "province": "JAWA BARAT", "district": "BANDUNG"}, {"lon": 107.72974, "lat": -6.91724, "name": "CINTA AIR MINUM, PT", "province": "JAWA BARAT", "district": "BANDUNG"}, {"lon": 107.6263383, "lat": -6.930266983, "name": "CIPTA CEKAS GRAFIKA, CV", "province": "JAWA BARAT", "district": "BANDUNG"}, {"lon": 107.595096, "lat": -7.021019, "name": "CIPTA GEMILANG SENTOSA", "province": "JAWA BARAT", "district": "BANDUNG"}, {"lon": 107.564949, "lat": -6.953606, "name": "CIPTA JAYA, CV", "province": "JAWA BARAT", "district": "BANDUNG"}, {"lon": 107.569764, "lat": -6.922209, "name": "CISANGKAN, PT", "province": "JAWA BARAT", "district": "BANDUNG"}, {"lon": 107.588339, "lat": -6.911189999, "name": "CITRA KUALITA PERDANA", "province": "JAWA BARAT", "district": "BANDUNG"}, {"lon": 107.58109, "lat": -6.922869984, "name": "CITRA MAJU MANDIRI GLOBALINDO", "province": "JAWA BARAT", "district": "BANDUNG"}, {"lon": 107.761242, "lat": -7.086321, "name": "CITRA MENARA MAS", "province": "JAWA BARAT", "district": "BANDUNG"}, {"lon": 107.64363, "lat": -6.898320018, "name": "CITRA ROEPA RASA", "province": "JAWA BARAT", "district": "BANDUNG"}, {"lon": 107.572545, "lat": -6.933562, "name": "CONTINENTAL COSMETIC, PT", "province": "JAWA BARAT", "district": "BANDUNG"}, {"lon": 107.58222, "lat": -6.9512, "name": "CR JAYA 8", "province": "JAWA BARAT", "district": "BANDUNG"}, {"lon": 107.700869, "lat": -6.930335, "name": "CRESCO INDONESIA, PT", "province": "JAWA BARAT", "district": "BANDUNG"}, {"lon": 107.728, "lat": -7.0086, "name": "CRESCO INDONESIA, PT", "province": "JAWA BARAT", "district": "BANDUNG"}, {"lon": 107.573331, "lat": -6.945285, "name": "DARMA SETIA LIRA, PT", "province": "JAWA BARAT", "district": "BANDUNG"}, {"lon": 107.61308, "lat": -6.919419992, "name": "DAYA MUKTI", "province": "JAWA BARAT", "district": "BANDUNG"}, {"lon": 107.6154, "lat": -6.927440007, "name": "DAYAGUNA TATADUTA", "province": "JAWA BARAT", "district": "BANDUNG"}, {"lon": 107.55371, "lat": -6.99417, "name": "DELAPAN EMPAT SAKTI, PT", "province": "JAWA BARAT", "district": "BANDUNG"}, {"lon": 107.753126, "lat": -6.943978, "name": "DERMA INTERNATIONAL, PT", "province": "JAWA BARAT", "district": "BANDUNG"}, {"lon": 107.580882, "lat": -7.03055, "name": "DHANAR MAS CONCERN III, PT", "province": "JAWA BARAT", "district": "BANDUNG"}, {"lon": 107.61249, "lat": -6.97513, "name": "DHANAR MAS CONCERN, PT", "province": "JAWA BARAT", "district": "BANDUNG"}, {"lon": 107.57505, "lat": -6.94411, "name": "DINAMIKA ELECTRO PLATING", "province": "JAWA BARAT", "district": "BANDUNG"}, {"lon": 107.50729, "lat": -6.89783, "name": "DIRGANTARA ASPALINDO", "province": "JAWA BARAT", "district": "BANDUNG"}, {"lon": 107.61399, "lat": -6.89865, "name": "DIRGANTARA BETONINDO", "province": "JAWA BARAT", "district": "BANDUNG"}, {"lon": 107.582596, "lat": -6.950091, "name": "DIVATAMA INTIPERINTIS INDOPAPER, PT", "province": "JAWA BARAT", "district": "BANDUNG"}, {"lon": 107.61587, "lat": -6.917970007, "name": "D-STYLE", "province": "JAWA BARAT", "district": "BANDUNG"}, {"lon": 107.75342, "lat": -7.044565, "name": "DULANG MAS, CV", "province": "JAWA BARAT", "district": "BANDUNG"}, {"lon": 107.573476, "lat": -6.944068, "name": "DUNIA PLASTIK", "province": "JAWA BARAT", "district": "BANDUNG"}, {"lon": 107.56891, "lat": -6.92659, "name": "DUTA WARNA", "province": "JAWA BARAT", "district": "BANDUNG"}, {"lon": 107.66351, "lat": -6.94818, "name": "DWI CAKRA PRATAMA", "province": "JAWA BARAT", "district": "BANDUNG"}, {"lon": 107.62581, "lat": -6.93609998, "name": "DWI LARAS MANUNGGAL", "province": "JAWA BARAT", "district": "BANDUNG"}, {"lon": 107.748854, "lat": -7.016733, "name": "DWIDAYA INTRANUSA, PT", "province": "JAWA BARAT", "district": "BANDUNG"}, {"lon": 107.69352, "lat": -6.98337, "name": "DWIDAYA MANDRASAKTI, PT", "province": "JAWA BARAT", "district": "BANDUNG"}, {"lon": 107.686461, "lat": -6.966029, "name": "DWIDAYA MANDRASAKTI. PT", "province": "JAWA BARAT", "district": "BANDUNG"}, {"lon": 107.69936, "lat": -6.93396, "name": "ELEKTRINDODAYA PAKARNUSA, PT/ELSA, PT", "province": "JAWA BARAT", "district": "BANDUNG"}, {"lon": 107.554267, "lat": -6.997379, "name": "ERLANGGA TRIMANUNGGAL KUSUMAH, PT", "province": "JAWA BARAT", "district": "BANDUNG"}, {"lon": 107.822211, "lat": -6.991312, "name": "ERRITA PHARMA, PT", "province": "JAWA BARAT", "district": "BANDUNG"}, {"lon": 107.583444, "lat": -7.05563, "name": "ESA PERDANA, CV", "province": "JAWA BARAT", "district": "BANDUNG"}, {"lon": 107.650798, "lat": -6.899034, "name": "EWINDO, PT", "province": "JAWA BARAT", "district": "BANDUNG"}, {"lon": 107.58661, "lat": -6.94415, "name": "FAJAR MATARAM SEDAYU, PT", "province": "JAWA BARAT", "district": "BANDUNG"}, {"lon": 107.741501, "lat": -7.049715, "name": "FERINATEX JAYA, PT", "province": "JAWA BARAT", "district": "BANDUNG"}, {"lon": 107.813825, "lat": -7.00132, "name": "FILAMENINDO LESTARI TEXTILE, PT", "province": "JAWA BARAT", "district": "BANDUNG"}, {"lon": 107.60987, "lat": -6.928709991, "name": "FILLINDO BERKAH SAWARGI", "province": "JAWA BARAT", "district": "BANDUNG"}, {"lon": 107.620076, "lat": -6.6972939, "name": "FIRMAN JAYA DUA SAUDARA, PT", "province": "JAWA BARAT", "district": "BANDUNG"}, {"lon": 107.754612, "lat": -7.054067, "name": "FIRMAN JAYA, CV", "province": "JAWA BARAT", "district": "BANDUNG"}, {"lon": 107.6277058, "lat": -6.927438593, "name": "FORTUNA SHOES, CV", "province": "JAWA BARAT", "district": "BANDUNG"}, {"lon": 107.3545, "lat": -6.563, "name": "FOXIMAS MANDIRI, PT", "province": "JAWA BARAT", "district": "BANDUNG"}, {"lon": 107.688447, "lat": -6.972446, "name": "FUJI SEIKI INDONESIA, PT", "province": "JAWA BARAT", "district": "BANDUNG"}, {"lon": 107.57002, "lat": -6.912249987, "name": "GAJAH ANGKASA PERKASA, PT\\BANDUNG SARU", "province": "JAWA BARAT", "district": "BANDUNG"}, {"lon": 107.57064, "lat": -6.922558, "name": "GARUDA KNITINDO OPTIMA, PT", "province": "JAWA BARAT", "district": "BANDUNG"}, {"lon": 107.57372, "lat": -6.89556, "name": "GE NUSANTARA TURBINE SERVICES", "province": "JAWA BARAT", "district": "BANDUNG"}, {"lon": 107.59579, "lat": -6.976072, "name": "GELINDO GARMENTAMA, PT", "province": "JAWA BARAT", "district": "BANDUNG"}, {"lon": 107.546, "lat": -6.9281, "name": "GEMILANG PLASTIK", "province": "JAWA BARAT", "district": "BANDUNG"}, {"lon": 107.71052, "lat": -6.92416, "name": "GENTA TRIKARYA, PT", "province": "JAWA BARAT", "district": "BANDUNG"}, {"lon": 107.66644, "lat": -6.912169981, "name": "GERLINK UTAMA MANDIRI", "province": "JAWA BARAT", "district": "BANDUNG"}, {"lon": 107.536503, "lat": -6.937116, "name": "GISTEX, PT", "province": "JAWA BARAT", "district": "BANDUNG"}, {"lon": 107.72131, "lat": -6.94226, "name": "GLOBAL KRIYA NUSANTARA, PT", "province": "JAWA BARAT", "district": "BANDUNG"}, {"lon": 107.691851, "lat": -6.912658, "name": "GLOBAL KRIYA NUSANTARA, PT", "province": "JAWA BARAT", "district": "BANDUNG"}, {"lon": 107.64167, "lat": -6.94821, "name": "GOLDEN EMBROIDERY", "province": "JAWA BARAT", "district": "BANDUNG"}, {"lon": 107.55334, "lat": -6.98681, "name": "GOLDINDO PRIMATAMA SWEATER, CV", "province": "JAWA BARAT", "district": "BANDUNG"}, {"lon": 107.57934, "lat": -6.97473, "name": "GRACE HILL GARMENT INDONESIA, PT", "province": "JAWA BARAT", "district": "BANDUNG"}, {"lon": 107.629, "lat": -6.945670017, "name": "GRADIENT", "province": "JAWA BARAT", "district": "BANDUNG"}, {"lon": 107.580696, "lat": -7.040674, "name": "GRAHA SURYA ANGKASA, PT", "province": "JAWA BARAT", "district": "BANDUNG"}, {"lon": 107.3314, "lat": -6.5827, "name": "GRAND OTORINDO RUBBER, CV", "province": "JAWA BARAT", "district": "BANDUNG"}, {"lon": 107.535556, "lat": -6.950186, "name": "GREENLON INDONESIA, PT", "province": "JAWA BARAT", "district": "BANDUNG"}, {"lon": 107.69766, "lat": -6.921040005, "name": "GUMILANG ABADI INDOPLAST", "province": "JAWA BARAT", "district": "BANDUNG"}, {"lon": 107.7487, "lat": -7.0607, "name": "GUNAJAYA SANTOSA", "province": "JAWA BARAT", "district": "BANDUNG"}, {"lon": 107.748797, "lat": -7.060708, "name": "HABATEX DWI LESTARI", "province": "JAWA BARAT", "district": "BANDUNG"}, {"lon": 107.615751, "lat": -6.965788, "name": "HAKATEX, PT", "province": "JAWA BARAT", "district": "BANDUNG"}, {"lon": 107.57462, "lat": -6.908589987, "name": "HANJAYA", "province": "JAWA BARAT", "district": "BANDUNG"}, {"lon": 107.5707045, "lat": -6.927816717, "name": "HARAPAN BARU, CV", "province": "JAWA BARAT", "district": "BANDUNG"}, {"lon": 107.623299, "lat": -6.949444845, "name": "HARIFF DAYA TUNGGAL ENGINEERING", "province": "JAWA BARAT", "district": "BANDUNG"}, {"lon": 107.748, "lat": -7.0608, "name": "HARLI DUNIA INDAH, PT", "province": "JAWA BARAT", "district": "BANDUNG"}, {"lon": 107.582171, "lat": -6.952094, "name": "HARMONY TUNAS PRIMA", "province": "JAWA BARAT", "district": "BANDUNG"}, {"lon": 107.744582, "lat": -7.004593, "name": "HATTORI INDONESIA, PT", "province": "JAWA BARAT", "district": "BANDUNG"}, {"lon": 107.3417, "lat": -6.544, "name": "HIDUP BARU", "province": "JAWA BARAT", "district": "BANDUNG"}, {"lon": 107.69346, "lat": -6.930909989, "name": "HINANI, CV", "province": "JAWA BARAT", "district": "BANDUNG"}, {"lon": 107.606595, "lat": -6.974626, "name": "IDAMAN ERAMANDIRI, PT", "province": "JAWA BARAT", "district": "BANDUNG"}, {"lon": 107.616311, "lat": -6.969302, "name": "IDAR BUANA, PT", "province": "JAWA BARAT", "district": "BANDUNG"}, {"lon": 107.751065, "lat": -7.054007, "name": "IDOLA SELARAS ABADI, PT", "province": "JAWA BARAT", "district": "BANDUNG"}, {"lon": 107.56067, "lat": -6.93227, "name": "IFATAMA JAYA KREASI, PT", "province": "JAWA BARAT", "district": "BANDUNG"}, {"lon": 107.581, "lat": -6.96006, "name": "INDO MAKMUR MANDIRI", "province": "JAWA BARAT", "district": "BANDUNG"}, {"lon": 107.73124, "lat": -7.04318, "name": "INDO PACIFIC, PT", "province": "JAWA BARAT", "district": "BANDUNG"}, {"lon": 107.59689, "lat": -6.92112001, "name": "INDOKAWA ROCKLINE", "province": "JAWA BARAT", "district": "BANDUNG"}, {"lon": 107.55049, "lat": -6.92843, "name": "INDOMAS, CV", "province": "JAWA BARAT", "district": "BANDUNG"}, {"lon": 107.5618633, "lat": -6.946903403, "name": "INDONUSA LABEL", "province": "JAWA BARAT", "district": "BANDUNG"}, {"lon": 107.73555, "lat": -6.93372, "name": "INDORUB, PT", "province": "JAWA BARAT", "district": "BANDUNG"}, {"lon": 107.575831, "lat": -6.933911, "name": "INDOSAL JAYA MANDIRI, PT", "province": "JAWA BARAT", "district": "BANDUNG"}, {"lon": 107.5906148, "lat": -6.948117, "name": "INDOSARI", "province": "JAWA BARAT", "district": "BANDUNG"}, {"lon": 107.786917, "lat": -6.960632, "name": "INDOVON PITALOKA PERKASA, PT", "province": "JAWA BARAT", "district": "BANDUNG"}, {"lon": 107.745221, "lat": -7.005194, "name": "ING INTERNATIONAL, PT", "province": "JAWA BARAT", "district": "BANDUNG"}, {"lon": 107.57159, "lat": -6.95288, "name": "INNOFIN, PT/ INOVIN", "province": "JAWA BARAT", "district": "BANDUNG"}, {"lon": 107.3582, "lat": -6.5775, "name": "INTRANIKKA RAYA, PT", "province": "JAWA BARAT", "district": "BANDUNG"}, {"lon": 107.58697, "lat": -6.877719982, "name": "ITTAHERL", "province": "JAWA BARAT", "district": "BANDUNG"}, {"lon": 107.6551036, "lat": -6.914074405, "name": "JAGARAGA", "province": "JAWA BARAT", "district": "BANDUNG"}, {"lon": 107.58705, "lat": -6.944399992, "name": "JAINDO METAL INDUSTRIES, PT", "province": "JAWA BARAT", "district": "BANDUNG"}, {"lon": 107.6476939, "lat": -6.901534, "name": "JATI MEKAR PERSADA, PT/ MERAK PERSADA", "province": "JAWA BARAT", "district": "BANDUNG"}, {"lon": 107.4337, "lat": -6.568, "name": "JAYA ANUGERAH RUBBER, PT", "province": "JAWA BARAT", "district": "BANDUNG"}, {"lon": 107.49401, "lat": -6.86502, "name": "JAYA LESTARI PLASINDO", "province": "JAWA BARAT", "district": "BANDUNG"}, {"lon": 107.6159326, "lat": -6.930485362, "name": "JAYA MITRA KURNIA", "province": "JAWA BARAT", "district": "BANDUNG"}, {"lon": 107.56786, "lat": -6.949092, "name": "JAYA SENTOSA, CV", "province": "JAWA BARAT", "district": "BANDUNG"}, {"lon": 107.65158, "lat": -6.907419999, "name": "JAYADI SUKSES MAKMUR", "province": "JAWA BARAT", "district": "BANDUNG"}, {"lon": 107.64126, "lat": -6.950419, "name": "JAYAMAS DWI PERKASA", "province": "JAWA BARAT", "district": "BANDUNG"}, {"lon": 107.541134, "lat": -6.92008, "name": "JERDYTEX, PT", "province": "JAWA BARAT", "district": "BANDUNG"}, {"lon": 107.740697, "lat": -7.003077, "name": "KAHATEX, PT", "province": "JAWA BARAT", "district": "BANDUNG"}, {"lon": 107.5807757, "lat": -6.939176353, "name": "KALDU SARI NABATI INDONESIA, PT", "province": "JAWA BARAT", "district": "BANDUNG"}, {"lon": 107.5902791, "lat": -6.916103765, "name": "KALIBARU, PT", "province": "JAWA BARAT", "district": "BANDUNG"}, {"lon": 107.5881545, "lat": -6.908150306, "name": "KANVAS CEMERLANG PERDANA, PT", "province": "JAWA BARAT", "district": "BANDUNG"}, {"lon": 107.554351, "lat": -6.989358, "name": "KAO INDONESIA", "province": "JAWA BARAT", "district": "BANDUNG"}, {"lon": 107.56801, "lat": -6.92903, "name": "KARTIKA INTI SEJATI, PT", "province": "JAWA BARAT", "district": "BANDUNG"}, {"lon": 107.45343, "lat": -7.10317, "name": "KARTINI TEH NASIONAL, PT", "province": "JAWA BARAT", "district": "BANDUNG"}, {"lon": 107.649404, "lat": -6.953189, "name": "KARYA MANDIRI, CV / JAYA ABADI, CV", "province": "JAWA BARAT", "district": "BANDUNG"}, {"lon": 107.3423, "lat": -6.5643, "name": "KARYA PRIMA SENTOSA TEXTILE, PT", "province": "JAWA BARAT", "district": "BANDUNG"}, {"lon": 107.553366, "lat": -7.000707, "name": "KAYO MAKMUR INDONESIA, PT", "province": "JAWA BARAT", "district": "BANDUNG"}, {"lon": 107.6820745, "lat": -6.964614714, "name": "KAYO SURYA UTAMA, PT", "province": "JAWA BARAT", "district": "BANDUNG"}, {"lon": 107.5834554, "lat": -6.955139566, "name": "KEMAS SARANA MULTIGUNA", "province": "JAWA BARAT", "district": "BANDUNG"}, {"lon": 107.612, "lat": -6.9753, "name": "KEMAS SARANA MULTIGUNA, PT", "province": "JAWA BARAT", "district": "BANDUNG"}, {"lon": 107.325, "lat": -7.14, "name": "KEN KEN INDONESIA, PT", "province": "JAWA BARAT", "district": "BANDUNG"}, {"lon": 107.599678, "lat": -6.926213368, "name": "KERTASARI", "province": "JAWA BARAT", "district": "BANDUNG"}, {"lon": 107.766, "lat": -7.0547, "name": "KHARINDO JAYA TEKSTIL", "province": "JAWA BARAT", "district": "BANDUNG"}, {"lon": 107.58356, "lat": -6.96159, "name": "KHARISMA AGRO SWADAYA", "province": "JAWA BARAT", "district": "BANDUNG"}, {"lon": 107.543263, "lat": -6.931785, "name": "KHARISMA LESTARI JAYA, PT", "province": "JAWA BARAT", "district": "BANDUNG"}, {"lon": 107.56704, "lat": -6.94383, "name": "KHARISMA PRINTEX, PT", "province": "JAWA BARAT", "district": "BANDUNG"}, {"lon": 107.748905, "lat": -7.005408, "name": "KIA TEXTILE INDUSTRIES, PT", "province": "JAWA BARAT", "district": "BANDUNG"}, {"lon": 107.5950932, "lat": -6.90674115, "name": "KIMIA FARMA, PT", "province": "JAWA BARAT", "district": "BANDUNG"}, {"lon": 107.826746, "lat": -6.990914, "name": "KIMU ENAM KEMASINDO, PT", "province": "JAWA BARAT", "district": "BANDUNG"}, {"lon": 107.803216, "lat": -6.964496, "name": "KOSINA TEXTILE, PT", "province": "JAWA BARAT", "district": "BANDUNG"}, {"lon": 107.63477, "lat": -6.93656002, "name": "KREASI PERMATA SINERGI", "province": "JAWA BARAT", "district": "BANDUNG"}, {"lon": 107.592235, "lat": -7.043418, "name": "KUKUH TANGGUH SANDANG MILLS, PT", "province": "JAWA BARAT", "district": "BANDUNG"}, {"lon": 107.57911, "lat": -6.97311, "name": "KURNIA ABADI", "province": "JAWA BARAT", "district": "BANDUNG"}, {"lon": 107.3425, "lat": -6.5642, "name": "LABITTA BENDERANG USAHA, PT", "province": "JAWA BARAT", "district": "BANDUNG"}, {"lon": 107.56909, "lat": -6.929670012, "name": "LAJU BAHTERA", "province": "JAWA BARAT", "district": "BANDUNG"}, {"lon": 107.57127, "lat": -6.94668, "name": "LAJU PARAMITA LESTARI", "province": "JAWA BARAT", "district": "BANDUNG"}, {"lon": 107.794967, "lat": -6.963881, "name": "LAKSANA KURNIA MANDIRI SEJATI, PT", "province": "JAWA BARAT", "district": "BANDUNG"}, {"lon": 107.555325, "lat": -6.987957, "name": "LANGGENG SENTOSA GARMINDO, PT", "province": "JAWA BARAT", "district": "BANDUNG"}, {"lon": 107.6967426, "lat": -6.92301385, "name": "LAWE ADYAPRIMA SPINNING MILLS, PT", "province": "JAWA BARAT", "district": "BANDUNG"}, {"lon": 107.689713, "lat": -6.971981, "name": "LEADEN INDONESIA, PT", "province": "JAWA BARAT", "district": "BANDUNG"}, {"lon": 107.618824, "lat": -6.965192, "name": "LEADING GARMENT INDUSTRIES, PT", "province": "JAWA BARAT", "district": "BANDUNG"}, {"lon": 107.69775, "lat": -6.920129981, "name": "LEBELLO INDO INDUSTRIES", "province": "JAWA BARAT", "district": "BANDUNG"}, {"lon": 107.62505, "lat": -6.92033999, "name": "LIGA CIPTA GARMINDO, CV", "province": "JAWA BARAT", "district": "BANDUNG"}, {"lon": 107.58009, "lat": -6.920920018, "name": "LIMA ENAM TUJUH SAJA", "province": "JAWA BARAT", "district": "BANDUNG"}, {"lon": 107.50161, "lat": -6.86598, "name": "LINGGA KANAKAJAYA", "province": "JAWA BARAT", "district": "BANDUNG"}, {"lon": 107.60641, "lat": -6.947849983, "name": "LINK CRAFTED INTERNATIONAL", "province": "JAWA BARAT", "district": "BANDUNG"}, {"lon": 107.82969, "lat": -6.97309, "name": "LUNG KARPET INDUSTRY", "province": "JAWA BARAT", "district": "BANDUNG"}, {"lon": 107.454, "lat": -7.414, "name": "MAEMUNAH, CV", "province": "JAWA BARAT", "district": "BANDUNG"}, {"lon": 107.573546, "lat": -6.941378, "name": "MAESTRO PRINT, CV", "province": "JAWA BARAT", "district": "BANDUNG"}, {"lon": 107.60243, "lat": -6.90019002, "name": "MAGNOLIUM MANDIRI INDONESIA", "province": "JAWA BARAT", "district": "BANDUNG"}, {"lon": 107.599583, "lat": -6.974483, "name": "MAHAMERU CENTRATAMA SPINNING MILLS, PT", "province": "JAWA BARAT", "district": "BANDUNG"}, {"lon": 107.57196, "lat": -7.00432, "name": "MAJU ALAM SERAYA", "province": "JAWA BARAT", "district": "BANDUNG"}, {"lon": 107.752742, "lat": -7.042229, "name": "MAJU AMAN SENTOSA TEKSTIL, PT", "province": "JAWA BARAT", "district": "BANDUNG"}, {"lon": 107.568868, "lat": -6.902426, "name": "MAJU LESTARI, CV", "province": "JAWA BARAT", "district": "BANDUNG"}, {"lon": 107.58307, "lat": -6.913969995, "name": "MAKMUR", "province": "JAWA BARAT", "district": "BANDUNG"}, {"lon": 107.744998, "lat": -7.049562, "name": "MAKMUR ABADI, CV/FAMILI", "province": "JAWA BARAT", "district": "BANDUNG"}, {"lon": 107.719231, "lat": -6.923319, "name": "MANEKINDO MULTI KREASI, PT", "province": "JAWA BARAT", "district": "BANDUNG"}, {"lon": 107.648646, "lat": -7.014174, "name": "MARGA ASIH SELARAS, PT (TJIOE JOE KONG)", "province": "JAWA BARAT", "district": "BANDUNG"}, {"lon": 107.648132, "lat": -6.954981, "name": "MARIN LIZA FARMASI, PT", "province": "JAWA BARAT", "district": "BANDUNG"}, {"lon": 107.5672339, "lat": -6.930127271, "name": "MARLINE", "province": "JAWA BARAT", "district": "BANDUNG"}, {"lon": 107.3332, "lat": -6.597, "name": "MASCOT, CV", "province": "JAWA BARAT", "district": "BANDUNG"}, {"lon": 107.75554, "lat": -7.04371, "name": "MASINDO, CV", "province": "JAWA BARAT", "district": "BANDUNG"}, {"lon": 107.72353, "lat": -6.93122, "name": "MAWA HEEJRA, CV", "province": "JAWA BARAT", "district": "BANDUNG"}, {"lon": 107.786458, "lat": -6.958702, "name": "MEGAH ASRI BUSANA INTERNASIONAL, PT", "province": "JAWA BARAT", "district": "BANDUNG"}, {"lon": 107.595687, "lat": -6.976415, "name": "MEIYA BUTTON INDUSTRY, PT", "province": "JAWA BARAT", "district": "BANDUNG"}, {"lon": 107.333581, "lat": -7.188862, "name": "MELANIA INDONESIA, PT", "province": "JAWA BARAT", "district": "BANDUNG"}, {"lon": 107.5592251, "lat": -6.93389996, "name": "MENARA JAYA", "province": "JAWA BARAT", "district": "BANDUNG"}, {"lon": 107.6862374, "lat": -6.93732683, "name": "MEPROFARM, PT", "province": "JAWA BARAT", "district": "BANDUNG"}, {"lon": 107.7642, "lat": -7.1006, "name": "METRIX", "province": "JAWA BARAT", "district": "BANDUNG"}, {"lon": 107.57303, "lat": -6.945649985, "name": "METZ INDONESIA", "province": "JAWA BARAT", "district": "BANDUNG"}, {"lon": 107.747532, "lat": -7.005094, "name": "MICRO GARMENT, PT", "province": "JAWA BARAT", "district": "BANDUNG"}, {"lon": 107.794826, "lat": -6.963027, "name": "MINO CARPET INDONESIA, PT", "province": "JAWA BARAT", "district": "BANDUNG"}, {"lon": 107.5847654, "lat": -6.933341326, "name": "MIRAGES PRINTING", "province": "JAWA BARAT", "district": "BANDUNG"}, {"lon": 107.82435, "lat": -6.97278, "name": "MITRA ABADI, PT", "province": "JAWA BARAT", "district": "BANDUNG"}, {"lon": 107.55868, "lat": -6.989933, "name": "MITRA LESTARI SEJATI, PT", "province": "JAWA BARAT", "district": "BANDUNG"}, {"lon": 107.60032, "lat": -6.940650012, "name": "MITRA PLASTIK", "province": "JAWA BARAT", "district": "BANDUNG"}, {"lon": 107.594672, "lat": -7.039644, "name": "MITRA RAJAWALI BANJARAN, PT/BIMACOM, P", "province": "JAWA BARAT", "district": "BANDUNG"}, {"lon": 107.3446, "lat": -6.5829, "name": "MITRA USAHA MANDIRI", "province": "JAWA BARAT", "district": "BANDUNG"}, {"lon": 107.604605, "lat": -6.973913, "name": "MORIUCHI INDONESIA, PT", "province": "JAWA BARAT", "district": "BANDUNG"}, {"lon": 107.547151, "lat": -6.932892, "name": "MUKTI YASA, PT", "province": "JAWA BARAT", "district": "BANDUNG"}, {"lon": 107.748711, "lat": -7.004931, "name": "MULIA MEGAH MANDIRI, PT", "province": "JAWA BARAT", "district": "BANDUNG"}, {"lon": 107.5671771, "lat": -6.950495406, "name": "MULIA PLASTIK", "province": "JAWA BARAT", "district": "BANDUNG"}, {"lon": 107.3431, "lat": -6.5749, "name": "MULTI GARMENTAMA, PT", "province": "JAWA BARAT", "district": "BANDUNG"}, {"lon": 107.6877653, "lat": -6.9249375, "name": "MULTI INSTRUMENTASI, PT", "province": "JAWA BARAT", "district": "BANDUNG"}, {"lon": 107.55564, "lat": -6.98649, "name": "MULTI SHRINK PLAST, CV", "province": "JAWA BARAT", "district": "BANDUNG"}, {"lon": 107.746978, "lat": -7.064155, "name": "MULTI STAR RUKUN ABADI", "province": "JAWA BARAT", "district": "BANDUNG"}, {"lon": 107.5680882, "lat": -6.946124574, "name": "MULTILAMI PLASINDO", "province": "JAWA BARAT", "district": "BANDUNG"}, {"lon": 107.78875, "lat": -7.03075, "name": "MULYA JAYA, UD", "province": "JAWA BARAT", "district": "BANDUNG"}, {"lon": 107.57163, "lat": -6.942140021, "name": "MUNCUL JAYA", "province": "JAWA BARAT", "district": "BANDUNG"}, {"lon": 107.6697586, "lat": -6.949136315, "name": "MUSTIKA KANDANG WESI (MUSTIKASI)", "province": "JAWA BARAT", "district": "BANDUNG"}, {"lon": 107.7671243, "lat": -6.83830669, "name": "NAGA MAS KURNIA SEJAHTERA, PT", "province": "JAWA BARAT", "district": "BANDUNG"}, {"lon": 107.764, "lat": -7.0545, "name": "NAGA MAS, UD", "province": "JAWA BARAT", "district": "BANDUNG"}, {"lon": 107.74832, "lat": -7.00487, "name": "NAGA MULIA TEKSTIL, PT", "province": "JAWA BARAT", "district": "BANDUNG"}, {"lon": 107.765, "lat": -7.0546, "name": "NAGAMAS KURNIA SEJAHTERA", "province": "JAWA BARAT", "district": "BANDUNG"}, {"lon": 107.615213, "lat": -6.974318, "name": "NAGASAKTI KURNIA TEXTILE MILLS, PT", "province": "JAWA BARAT", "district": "BANDUNG"}, {"lon": 107.614118, "lat": -6.962512, "name": "NIAGA KURNIA, PT", "province": "JAWA BARAT", "district": "BANDUNG"}, {"lon": 107.650673, "lat": -6.898895, "name": "NIKKATSU ELECTRIC WORKS, PT", "province": "JAWA BARAT", "district": "BANDUNG"}, {"lon": 107.758997, "lat": -6.958627, "name": "NOVATEX", "province": "JAWA BARAT", "district": "BANDUNG"}, {"lon": 107.57491, "lat": -6.89674, "name": "NUSANTARA TURBIN DAN PROPULSI", "province": "JAWA BARAT", "district": "BANDUNG"}, {"lon": 107.698245, "lat": -6.987, "name": "OJU TEXTILE INDONESIA, PT", "province": "JAWA BARAT", "district": "BANDUNG"}, {"lon": 107.58641, "lat": -6.936580011, "name": "PAGARSIH PLASTIK", "province": "JAWA BARAT", "district": "BANDUNG"}, {"lon": 107.58337, "lat": -6.940889986, "name": "PALEM TUNGGAL SEJAHTERA", "province": "JAWA BARAT", "district": "BANDUNG"}, {"lon": 107.537222, "lat": -6.93966, "name": "PANCAJAYA SEJATI", "province": "JAWA BARAT", "district": "BANDUNG"}, {"lon": 107.865214, "lat": -7.009428, "name": "PANFILA INDOSARI", "province": "JAWA BARAT", "district": "BANDUNG"}, {"lon": 107.611819, "lat": -7.009559, "name": "PAPYRUS SAKTI, PT", "province": "JAWA BARAT", "district": "BANDUNG"}, {"lon": 107.4131, "lat": -6.5247, "name": "PATISA CHAKRA MANDIRI, PT", "province": "JAWA BARAT", "district": "BANDUNG"}, {"lon": 107.617549, "lat": -6.965456, "name": "PERAJUTAN SAHABAT, PT", "province": "JAWA BARAT", "district": "BANDUNG"}, {"lon": 107.5798702, "lat": -6.937675651, "name": "PERCETAKAN DAN PENERBITAN GRANESIA", "province": "JAWA BARAT", "district": "BANDUNG"}, {"lon": 107.746957, "lat": -7.028447, "name": "PIKTONI TEKSTIL", "province": "JAWA BARAT", "district": "BANDUNG"}, {"lon": 107.5967, "lat": -6.923079992, "name": "POLATAMA", "province": "JAWA BARAT", "district": "BANDUNG"}, {"lon": 107.539909, "lat": -6.925713, "name": "POP STAR, PT", "province": "JAWA BARAT", "district": "BANDUNG"}, {"lon": 107.692549, "lat": -6.936276763, "name": "PRABHA SRI UTAMA EMBROIDERY TEXTILE INDUSTRY", "province": "JAWA BARAT", "district": "BANDUNG"}, {"lon": 107.594114, "lat": -7.027157, "name": "PRANATA JAYA ABADI, PT", "province": "JAWA BARAT", "district": "BANDUNG"}, {"lon": 107.69365, "lat": -6.930779986, "name": "PREMIUM CONCEPT DENIM SPECIALISTS", "province": "JAWA BARAT", "district": "BANDUNG"}, {"lon": 107.5904751, "lat": -6.934299945, "name": "PRIANGAN PUTRA ABADI", "province": "JAWA BARAT", "district": "BANDUNG"}, {"lon": 107.712298, "lat": -6.937042, "name": "PRIMA GRACINDO, PT", "province": "JAWA BARAT", "district": "BANDUNG"}, {"lon": 107.56885, "lat": -6.92661, "name": "PRIMA PACK", "province": "JAWA BARAT", "district": "BANDUNG"}, {"lon": 107.593372, "lat": -7.02641, "name": "PRODIAN CHEMICALS INDONESIA", "province": "JAWA BARAT", "district": "BANDUNG"}, {"lon": 107.541364, "lat": -6.922552, "name": "PULAU MAS, PT", "province": "JAWA BARAT", "district": "BANDUNG"}, {"lon": 107.541664, "lat": -6.926714, "name": "PUMASINDO, PT", "province": "JAWA BARAT", "district": "BANDUNG"}, {"lon": 107.5405, "lat": -6.94317, "name": "PUMASINDO, PT", "province": "JAWA BARAT", "district": "BANDUNG"}, {"lon": 107.745744, "lat": -7.068499, "name": "PUTERA MULYA TERANG INDAH, PT", "province": "JAWA BARAT", "district": "BANDUNG"}, {"lon": 107.7489, "lat": -7.0114, "name": "PUTRA JAYA", "province": "JAWA BARAT", "district": "BANDUNG"}, {"lon": 107.81164, "lat": -6.96591, "name": "RAFFI ANUGERAH TEKSTIL", "province": "JAWA BARAT", "district": "BANDUNG"}, {"lon": 107.571403, "lat": -6.927427, "name": "RAJAWALI PRATAMA MULYA, PT", "province": "JAWA BARAT", "district": "BANDUNG"}, {"lon": 107.5583, "lat": -6.934870019, "name": "RED A PLASTIC", "province": "JAWA BARAT", "district": "BANDUNG"}, {"lon": 107.6187072, "lat": -6.951424478, "name": "REFIKA ADITAMA, PT", "province": "JAWA BARAT", "district": "BANDUNG"}, {"lon": 107.4154, "lat": -6.5614, "name": "REKO TEXTILE INDONESIA, PT", "province": "JAWA BARAT", "district": "BANDUNG"}, {"lon": 107.604526, "lat": -6.9315835, "name": "REMAJA ROSDAKARYA", "province": "JAWA BARAT", "district": "BANDUNG"}, {"lon": 107.825897, "lat": -6.974076, "name": "RICKY PUTRA GLOBALINDO, PT", "province": "JAWA BARAT", "district": "BANDUNG"}, {"lon": 107.557149, "lat": -6.939338, "name": "ROSAN LANGGENG PRIMA, PT", "province": "JAWA BARAT", "district": "BANDUNG"}, {"lon": 107.568252, "lat": -6.952275, "name": "RUDYTEX", "province": "JAWA BARAT", "district": "BANDUNG"}, {"lon": 107.591523, "lat": -7.025209, "name": "SAFILINDO PERMATA, PT", "province": "JAWA BARAT", "district": "BANDUNG"}, {"lon": 107.689215, "lat": -6.943687, "name": "SAFTA FERTI", "province": "JAWA BARAT", "district": "BANDUNG"}, {"lon": 107.593835, "lat": -7.034663, "name": "SAIMODA GARMINDO, PT", "province": "JAWA BARAT", "district": "BANDUNG"}, {"lon": 107.57024, "lat": -6.943297, "name": "SAKU MAS JAYA, PT", "province": "JAWA BARAT", "district": "BANDUNG"}, {"lon": 107.805987, "lat": -7.019746, "name": "SAMSAN INTERTEX, PT", "province": "JAWA BARAT", "district": "BANDUNG"}, {"lon": 107.816, "lat": -7.0401, "name": "SAMTEX", "province": "JAWA BARAT", "district": "BANDUNG"}, {"lon": 107.743187, "lat": -7.004644, "name": "SAMUDRA DUNIA POLY JAYA ABADI, PT", "province": "JAWA BARAT", "district": "BANDUNG"}, {"lon": 107.55569, "lat": -6.93253, "name": "SAMUDRA JAYA", "province": "JAWA BARAT", "district": "BANDUNG"}, {"lon": 107.769, "lat": -7.0437, "name": "SANATEX 3", "province": "JAWA BARAT", "district": "BANDUNG"}, {"lon": 107.3413, "lat": -6.5222, "name": "SANDANG JAYA", "province": "JAWA BARAT", "district": "BANDUNG"}, {"lon": 107.74302, "lat": -7.048184, "name": "SANDANG MAJALAYA TEXTILE, PT/SAMATEX", "province": "JAWA BARAT", "district": "BANDUNG"}, {"lon": 106.8296376, "lat": -6.2477705, "name": "SANDANG SARI, CV", "province": "JAWA BARAT", "district": "BANDUNG"}, {"lon": 107.6058615, "lat": -6.943680296, "name": "SARANA MEGA FORTUNA, PT", "province": "JAWA BARAT", "district": "BANDUNG"}, {"lon": 107.686859, "lat": -6.972134, "name": "SARANA MOTOR, CV", "province": "JAWA BARAT", "district": "BANDUNG"}, {"lon": 107.551408, "lat": -7.007618, "name": "SARANA PANCAKARYA NUSA, PT", "province": "JAWA BARAT", "district": "BANDUNG"}, {"lon": 107.689837, "lat": -6.970612, "name": "SASAHARA INDONESIA", "province": "JAWA BARAT", "district": "BANDUNG"}, {"lon": 107.571294, "lat": -6.922131, "name": "SATELIT PLASTIK, CV", "province": "JAWA BARAT", "district": "BANDUNG"}, {"lon": 107.751154, "lat": -6.94626, "name": "SAYAP MAS UTAMA, KANTOR CABANG", "province": "JAWA BARAT", "district": "BANDUNG"}, {"lon": 107.553197, "lat": -7.001477, "name": "SEANTERO GUMILANG LESTARI, PT", "province": "JAWA BARAT", "district": "BANDUNG"}, {"lon": 107.74277, "lat": -7.02482, "name": "SECO TEXTILE INDONESIA", "province": "JAWA BARAT", "district": "BANDUNG"}, {"lon": 107.4027, "lat": -6.5617, "name": "SEGER SURYA, PT", "province": "JAWA BARAT", "district": "BANDUNG"}, {"lon": 107.556848, "lat": -6.989587, "name": "SEIKOU SEAT COVER, PT", "province": "JAWA BARAT", "district": "BANDUNG"}, {"lon": 107.562334, "lat": -6.957395, "name": "SEIV INDONESIA, PT", "province": "JAWA BARAT", "district": "BANDUNG"}, {"lon": 107.8258, "lat": -7.0668, "name": "SEJAHTERA BINTANG ABADI TEXTILE", "province": "JAWA BARAT", "district": "BANDUNG"}, {"lon": 107.5905815, "lat": -6.913511591, "name": "SEKAWAN, CV", "province": "JAWA BARAT", "district": "BANDUNG"}, {"lon": 107.74398, "lat": -7.04832, "name": "SEKAWAN, PT", "province": "JAWA BARAT", "district": "BANDUNG"}, {"lon": 107.6529116, "lat": -6.915688953, "name": "SELARAS DJAYA ABADI", "province": "JAWA BARAT", "district": "BANDUNG"}, {"lon": 107.810997, "lat": -7.006636, "name": "SEN LU INDONESIA, PT", "province": "JAWA BARAT", "district": "BANDUNG"}, {"lon": 107.5811153, "lat": -6.951851932, "name": "SEN SING", "province": "JAWA BARAT", "district": "BANDUNG"}, {"lon": 107.57984, "lat": -6.920599997, "name": "SENTRAKREASI BUSANAUTAMA", "province": "JAWA BARAT", "district": "BANDUNG"}, {"lon": 107.74219, "lat": -7.04891, "name": "SERAYU JAYA, CV", "province": "JAWA BARAT", "district": "BANDUNG"}, {"lon": 107.800765, "lat": -6.964945, "name": "SETIA KIJI REED, PT", "province": "JAWA BARAT", "district": "BANDUNG"}, {"lon": 107.59039, "lat": -6.910669998, "name": "SETIAWAN JOGISAPUTRA", "province": "JAWA BARAT", "district": "BANDUNG"}, {"lon": 107.6956283, "lat": -6.925356923, "name": "SHAFCO MULTI TRADING", "province": "JAWA BARAT", "district": "BANDUNG"}, {"lon": 107.582158, "lat": -6.951909, "name": "SHIN JIN METAL, PT", "province": "JAWA BARAT", "district": "BANDUNG"}, {"lon": 107.458, "lat": -6.5651, "name": "SIANYI INDUSTRY INDONESIA", "province": "JAWA BARAT", "district": "BANDUNG"}, {"lon": 107.684174, "lat": -6.909012, "name": "SILVER KRIS, PT", "province": "JAWA BARAT", "district": "BANDUNG"}, {"lon": 107.73901, "lat": -7.04707, "name": "SINAR ABADI, PT", "province": "JAWA BARAT", "district": "BANDUNG"}, {"lon": 107.5892793, "lat": -6.912687636, "name": "SINAR AGUNG", "province": "JAWA BARAT", "district": "BANDUNG"}, {"lon": 107.754953, "lat": -7.05245, "name": "SINAR AGUNG, CV", "province": "JAWA BARAT", "district": "BANDUNG"}, {"lon": 107.57472, "lat": -6.94402, "name": "SINAR AGUNG, PT", "province": "JAWA BARAT", "district": "BANDUNG"}, {"lon": 107.751363, "lat": -7.051928, "name": "SINAR BARU, CV", "province": "JAWA BARAT", "district": "BANDUNG"}, {"lon": 107.3427, "lat": -6.589, "name": "SINAR FAJAR PLASTIC, PT", "province": "JAWA BARAT", "district": "BANDUNG"}, {"lon": 107.69465, "lat": -6.927730021, "name": "SINAR INDAH", "province": "JAWA BARAT", "district": "BANDUNG"}, {"lon": 107.73739, "lat": -7.04623, "name": "SINAR MAJALAYA LESTARI, PT", "province": "JAWA BARAT", "district": "BANDUNG"}, {"lon": 107.802, "lat": -6.9655, "name": "SINAR MANDIRI TEXINDO", "province": "JAWA BARAT", "district": "BANDUNG"}, {"lon": 107.8198, "lat": -7.00511, "name": "SINAR MAS", "province": "JAWA BARAT", "district": "BANDUNG"}, {"lon": 107.549152, "lat": -7.030933, "name": "SINAR MULIA PLASINDO LESTARI", "province": "JAWA BARAT", "district": "BANDUNG"}, {"lon": 107.5662059, "lat": -6.93574005, "name": "SINAR MULYA PLASINDO LESTARI", "province": "JAWA BARAT", "district": "BANDUNG"}, {"lon": 107.7453, "lat": -7.05728, "name": "SINAR NUGRAHA", "province": "JAWA BARAT", "district": "BANDUNG"}, {"lon": 107.5784453, "lat": -6.913883702, "name": "SINAR RAGAMINDO UTAMA, PT/SINAR RAJAWA", "province": "JAWA BARAT", "district": "BANDUNG"}, {"lon": 107.553223, "lat": -7.002779, "name": "SINAR RUNNERINDO, PT", "province": "JAWA BARAT", "district": "BANDUNG"}, {"lon": 107.749131, "lat": -7.050262, "name": "SINAR SARI SEJATI, PT", "province": "JAWA BARAT", "district": "BANDUNG"}, {"lon": 107.61982, "lat": -6.949100018, "name": "SINAR SURYA UTAMA", "province": "JAWA BARAT", "district": "BANDUNG"}, {"lon": 107.57156, "lat": -6.95285, "name": "SINAR TERANG FAJAR, PT", "province": "JAWA BARAT", "district": "BANDUNG"}, {"lon": 107.65095, "lat": -6.904679996, "name": "SINARSAKTI MATRANUSANTARA", "province": "JAWA BARAT", "district": "BANDUNG"}, {"lon": 107.598109, "lat": -6.968689, "name": "SNS GARMENT, PT", "province": "JAWA BARAT", "district": "BANDUNG"}, {"lon": 107.62322, "lat": -6.941659989, "name": "SOL MED DISPO", "province": "JAWA BARAT", "district": "BANDUNG"}, {"lon": 107.55318, "lat": -6.98942, "name": "SOLES MULTI IDEA, PT", "province": "JAWA BARAT", "district": "BANDUNG"}, {"lon": 107.55475, "lat": -6.98889, "name": "SRI INDAH LABETAMA", "province": "JAWA BARAT", "district": "BANDUNG"}, {"lon": 107.553264, "lat": -6.990209, "name": "STANLI TRIJAYA MANDIRI, PT", "province": "JAWA BARAT", "district": "BANDUNG"}, {"lon": 107.5969943, "lat": -6.890389416, "name": "STATION DELAPAN CATERING AND BAKERY", "province": "JAWA BARAT", "district": "BANDUNG"}, {"lon": 107.596332, "lat": -6.975149, "name": "STOCKINDO KURNIA LESTARI, PT", "province": "JAWA BARAT", "district": "BANDUNG"}, {"lon": 107.6151, "lat": -6.9439, "name": "SUBUR JAYA, CV", "province": "JAWA BARAT", "district": "BANDUNG"}, {"lon": 107.3516, "lat": -7.153, "name": "SUDONG METAL BUTTONINDO, PT", "province": "JAWA BARAT", "district": "BANDUNG"}, {"lon": 107.72606, "lat": -7.03694, "name": "SUMBER AGUNG, PT", "province": "JAWA BARAT", "district": "BANDUNG"}, {"lon": 107.7518, "lat": -7.0586, "name": "SUMBER JAYA", "province": "JAWA BARAT", "district": "BANDUNG"}, {"lon": 107.3428, "lat": -6.5546, "name": "SUMBER JAYA, CV", "province": "JAWA BARAT", "district": "BANDUNG"}, {"lon": 107.6118656, "lat": -6.923635196, "name": "SUMBER PANGAN PRIMA", "province": "JAWA BARAT", "district": "BANDUNG"}, {"lon": 107.612399, "lat": -6.975322, "name": "SUMBER PLASTIK, CV", "province": "JAWA BARAT", "district": "BANDUNG"}, {"lon": 107.761, "lat": -7.009, "name": "SUMBER REZEKI", "province": "JAWA BARAT", "district": "BANDUNG"}, {"lon": 107.742416, "lat": -7.004668, "name": "SUN FLOWER INDONESIA, PT", "province": "JAWA BARAT", "district": "BANDUNG"}, {"lon": 107.748722, "lat": -7.004984, "name": "SUNFA TEXTILE INDUSTRY, PT", "province": "JAWA BARAT", "district": "BANDUNG"}, {"lon": 107.593655, "lat": -7.030521, "name": "SUPERBTEX, PT", "province": "JAWA BARAT", "district": "BANDUNG"}, {"lon": 107.60093, "lat": -6.94762, "name": "SURYA ENERGI INDOTAMA", "province": "JAWA BARAT", "district": "BANDUNG"}, {"lon": 107.836, "lat": -6.997, "name": "SURYA MAS AGUNG", "province": "JAWA BARAT", "district": "BANDUNG"}, {"lon": 107.521, "lat": -7.0453, "name": "SURYA USAHA MANDIRI, PT", "province": "JAWA BARAT", "district": "BANDUNG"}, {"lon": 107.5865301, "lat": -6.950339953, "name": "SURYA UTAMA NUSANTARA", "province": "JAWA BARAT", "district": "BANDUNG"}, {"lon": 107.58108, "lat": -6.95284, "name": "SWAJAYA SENTOSA ABADI, PT", "province": "JAWA BARAT", "district": "BANDUNG"}, {"lon": 107.65745, "lat": -6.925889983, "name": "SYGMA EXA GRAFIKA", "province": "JAWA BARAT", "district": "BANDUNG"}, {"lon": 107.4206, "lat": -6.4229, "name": "SYGMA EXAMEDIA ARKANLEEMA, PT", "province": "JAWA BARAT", "district": "BANDUNG"}, {"lon": 107.7051949, "lat": -6.926531564, "name": "TAMAS GLOBAL, PT (MR KIN).", "province": "JAWA BARAT", "district": "BANDUNG"}, {"lon": 107.3139, "lat": -7.1425, "name": "TATAR ANYAR INDONESIA, PT", "province": "JAWA BARAT", "district": "BANDUNG"}, {"lon": 107.69885, "lat": -6.93516, "name": "TAUFIK JAYA TEKNIK, CV", "province": "JAWA BARAT", "district": "BANDUNG"}, {"lon": 107.746421, "lat": -7.067929, "name": "TAWEKAL JAYA, PT", "province": "JAWA BARAT", "district": "BANDUNG"}, {"lon": 107.619427, "lat": -6.965626, "name": "TEGUH JAYA PRANATA", "province": "JAWA BARAT", "district": "BANDUNG"}, {"lon": 107.5882, "lat": -6.908159995, "name": "TEGUH SURYA", "province": "JAWA BARAT", "district": "BANDUNG"}, {"lon": 107.703225, "lat": -6.930584, "name": "TEKAD MANDIRI CITRA, PT", "province": "JAWA BARAT", "district": "BANDUNG"}, {"lon": 107.4042, "lat": -6.5624, "name": "TEPAT INDUSTRI", "province": "JAWA BARAT", "district": "BANDUNG"}, {"lon": 107.700193, "lat": -6.933019, "name": "TERANG CAHAYA ABADI SEJATI, PT", "province": "JAWA BARAT", "district": "BANDUNG"}, {"lon": 107.63419, "lat": -6.941500021, "name": "TERANG KASIH MULIA", "province": "JAWA BARAT", "district": "BANDUNG"}, {"lon": 107.3514, "lat": -6.5847, "name": "THETA BERKAT ANUGRAH, PT", "province": "JAWA BARAT", "district": "BANDUNG"}, {"lon": 107.776726, "lat": -7.036725, "name": "TIMBUL JAYA, CV", "province": "JAWA BARAT", "district": "BANDUNG"}, {"lon": 107.75766, "lat": -7.04866, "name": "TIMUR JAYA TEXTILE", "province": "JAWA BARAT", "district": "BANDUNG"}, {"lon": 107.80518, "lat": -6.96476, "name": "TIMUR JAYA TEXTILE, PT", "province": "JAWA BARAT", "district": "BANDUNG"}, {"lon": 107.6076441, "lat": -6.940283519, "name": "TJONG JE MIN", "province": "JAWA BARAT", "district": "BANDUNG"}, {"lon": 107.68697, "lat": -6.9764, "name": "TOBINDO KENCANA, PT", "province": "JAWA BARAT", "district": "BANDUNG"}, {"lon": 107.567346, "lat": -6.954306, "name": "TOE ZONE INDO, PT", "province": "JAWA BARAT", "district": "BANDUNG"}, {"lon": 107.5770802, "lat": -6.951330861, "name": "TOP TORCH INTERNATIONAL", "province": "JAWA BARAT", "district": "BANDUNG"}, {"lon": 107.822371, "lat": -7.005677, "name": "TOYO MACHINERY, CV", "province": "JAWA BARAT", "district": "BANDUNG"}, {"lon": 107.564261, "lat": -6.957111, "name": "TRACKERINDO ANUGERAH SEJAHTERA", "province": "JAWA BARAT", "district": "BANDUNG"}, {"lon": 107.63619, "lat": -6.945100006, "name": "TREESBEE", "province": "JAWA BARAT", "district": "BANDUNG"}, {"lon": 107.754887, "lat": -7.054203, "name": "TRI BERKAT ANUGERAH, PT", "province": "JAWA BARAT", "district": "BANDUNG"}, {"lon": 107.73473, "lat": -7.04499, "name": "TRI BHAKTI HAK", "province": "JAWA BARAT", "district": "BANDUNG"}, {"lon": 107.56734, "lat": -6.929019995, "name": "TRI JAYA SANDANG LESTARI", "province": "JAWA BARAT", "district": "BANDUNG"}, {"lon": 107.5854786, "lat": -6.943607526, "name": "TRIFA RAYA LABORATORIES, PT", "province": "JAWA BARAT", "district": "BANDUNG"}, {"lon": 107.791, "lat": -6.9634, "name": "TRIMAN", "province": "JAWA BARAT", "district": "BANDUNG"}, {"lon": 107.64895, "lat": -6.941149992, "name": "TRINDO PRATAMA", "province": "JAWA BARAT", "district": "BANDUNG"}, {"lon": 107.5957974, "lat": -6.886955821, "name": "TRINITY INDO GARMENT", "province": "JAWA BARAT", "district": "BANDUNG"}, {"lon": 107.731, "lat": -7.0431, "name": "TRIPUTRA TEXTILE INDUSTRY", "province": "JAWA BARAT", "district": "BANDUNG"}, {"lon": 107.742379, "lat": -7.024443, "name": "TRISAN ABADI, PT", "province": "JAWA BARAT", "district": "BANDUNG"}, {"lon": 107.3315, "lat": -6.5927, "name": "TRISCO TAILORED APPAREL MANUFACTURING", "province": "JAWA BARAT", "district": "BANDUNG"}, {"lon": 107.62639, "lat": -6.93776999, "name": "TRONICO BANDUNG", "province": "JAWA BARAT", "district": "BANDUNG"}, {"lon": 107.582124, "lat": -6.917979, "name": "TUNGGAL INTI KAHURIPAN, PT", "province": "JAWA BARAT", "district": "BANDUNG"}, {"lon": 107.575438, "lat": -6.923712, "name": "TUNGGAL JAYA", "province": "JAWA BARAT", "district": "BANDUNG"}, {"lon": 107.6541091, "lat": -6.899791893, "name": "TWINK INDONESIA, PT", "province": "JAWA BARAT", "district": "BANDUNG"}, {"lon": 107.60045, "lat": -6.903890002, "name": "UNGGUL BUKIT KENCANA", "province": "JAWA BARAT", "district": "BANDUNG"}, {"lon": 107.59348, "lat": -7.035927, "name": "UNICORN UTAMA", "province": "JAWA BARAT", "district": "BANDUNG"}, {"lon": 107.792903, "lat": -6.96394, "name": "UNIVERS SEWING INDONESIA", "province": "JAWA BARAT", "district": "BANDUNG"}, {"lon": 107.56594, "lat": -6.931030018, "name": "UNIVERSAL INDO PERSADA", "province": "JAWA BARAT", "district": "BANDUNG"}, {"lon": 107.649587, "lat": -7.014379, "name": "UNIVERSAL INTERIOR TEXTILE, PT", "province": "JAWA BARAT", "district": "BANDUNG"}, {"lon": 107.556481, "lat": -6.991059, "name": "VENAMON, PT", "province": "JAWA BARAT", "district": "BANDUNG"}, {"lon": 107.6068841, "lat": -6.930519041, "name": "VENINDO IMPERIAL PERKASA", "province": "JAWA BARAT", "district": "BANDUNG"}, {"lon": 107.5908551, "lat": -6.938889959, "name": "VIARA PLASTIK", "province": "JAWA BARAT", "district": "BANDUNG"}, {"lon": 107.6173054, "lat": -6.922427563, "name": "VIGANO PRATAMA MANDIRI, PT", "province": "JAWA BARAT", "district": "BANDUNG"}, {"lon": 107.58118, "lat": -6.928119989, "name": "VIVALDI INTI PERKASA", "province": "JAWA BARAT", "district": "BANDUNG"}, {"lon": 107.793901, "lat": -6.962884, "name": "VONEX INDONESIA, PT", "province": "JAWA BARAT", "district": "BANDUNG"}, {"lon": 107.564283, "lat": -6.956919, "name": "WAHANA INTERFOOD NUSANTARA, PT", "province": "JAWA BARAT", "district": "BANDUNG"}, {"lon": 107.805783, "lat": -7.022564, "name": "WAJATEX, PT", "province": "JAWA BARAT", "district": "BANDUNG"}, {"lon": 107.5655501, "lat": -6.93584496, "name": "WAN'S", "province": "JAWA BARAT", "district": "BANDUNG"}, {"lon": 107.52549, "lat": -6.955642, "name": "WARINGIN WIJAYA TEXINDO, PT", "province": "JAWA BARAT", "district": "BANDUNG"}, {"lon": 107.556462, "lat": -6.983664008, "name": "WARNA ASLI INDAH, PT", "province": "JAWA BARAT", "district": "BANDUNG"}, {"lon": 107.584958, "lat": -6.950298, "name": "WATTOO-WATTOO", "province": "JAWA BARAT", "district": "BANDUNG"}, {"lon": 107.58702, "lat": -7.02972, "name": "WEHARIMA LANGGENG LESTARI", "province": "JAWA BARAT", "district": "BANDUNG"}, {"lon": 107.74605, "lat": -7.06858, "name": "WILIMTEX, CV", "province": "JAWA BARAT", "district": "BANDUNG"}, {"lon": 107.742963, "lat": -7.006137, "name": "WINTAI GARMENT, PT", "province": "JAWA BARAT", "district": "BANDUNG"}, {"lon": 107.64873, "lat": -6.98464, "name": "WIRAKY NUSA TELEKOMUNIKASI", "province": "JAWA BARAT", "district": "BANDUNG"}, {"lon": 107.57274, "lat": -6.9528, "name": "YOUNG SHIN WORLD ZIPPER, PT", "province": "JAWA BARAT", "district": "BANDUNG"}, {"lon": 107.7596, "lat": -7.0438, "name": "YUNIKO ASIA PRIMA", "province": "JAWA BARAT", "district": "BANDUNG"}, {"lon": 107.684115, "lat": -6.906496129, "name": "ZANZIBAR BERKAH ABADI", "province": "JAWA BARAT", "district": "BANDUNG"}, {"lon": 107.4939358, "lat": -6.867685498, "name": "ADIGUNA EKA SENTRA, PT", "province": "JAWA BARAT", "district": "BANDUNG BARAT"}, {"lon": 107.495546, "lat": -6.867443, "name": "ALFA POLIMER INDONESIA, PT", "province": "JAWA BARAT", "district": "BANDUNG BARAT"}, {"lon": 107.501175, "lat": -6.861735, "name": "AMIDIS TIRTA MULIA, PT", "province": "JAWA BARAT", "district": "BANDUNG BARAT"}, {"lon": 107.5031595, "lat": -6.880896, "name": "ANEKA FERMENTASI INDUSTRI, PT", "province": "JAWA BARAT", "district": "BANDUNG BARAT"}, {"lon": 107.2952, "lat": -6.528178, "name": "ANUGERAH MULTISARI INDOTAMA", "province": "JAWA BARAT", "district": "BANDUNG BARAT"}, {"lon": 107.496295, "lat": -6.865545, "name": "ASATORINDO AGUNG, PT", "province": "JAWA BARAT", "district": "BANDUNG BARAT"}, {"lon": 107.300012, "lat": -6.5300046, "name": "ATEJA GRACE TEXINDO", "province": "JAWA BARAT", "district": "BANDUNG BARAT"}, {"lon": 107.4885821, "lat": -6.87061475, "name": "BAHAGIA SEJAHTERA METALINDO, PT", "province": "JAWA BARAT", "district": "BANDUNG BARAT"}, {"lon": 107.4521577, "lat": -6.831803371, "name": "BATU LAJU, PB", "province": "JAWA BARAT", "district": "BANDUNG BARAT"}, {"lon": 107.4948049, "lat": -6.866710853, "name": "BERDIKARI, CV/BRITEX", "province": "JAWA BARAT", "district": "BANDUNG BARAT"}, {"lon": 107.502618, "lat": -6.868189, "name": "BIGTHA TRYPHENA GARMENT, PT", "province": "JAWA BARAT", "district": "BANDUNG BARAT"}, {"lon": 107.501016, "lat": -6.870071, "name": "BIMETA KARNUSA, PT", "province": "JAWA BARAT", "district": "BANDUNG BARAT"}, {"lon": 107.4369442, "lat": -6.828793985, "name": "BUKIT ASHAR, PT", "province": "JAWA BARAT", "district": "BANDUNG BARAT"}, {"lon": 107.636919, "lat": -6.822125333, "name": "CAHAYA BARU, CV", "province": "JAWA BARAT", "district": "BANDUNG BARAT"}, {"lon": 107.4972983, "lat": -6.8500845, "name": "COMBIPHAR, PT", "province": "JAWA BARAT", "district": "BANDUNG BARAT"}, {"lon": 107.48622, "lat": -6.88794, "name": "DAYA PRATAMA LESTARI, PT", "province": "JAWA BARAT", "district": "BANDUNG BARAT"}, {"lon": 107.300041, "lat": -6.520003, "name": "DIENS SWAKARYA INDONESIA", "province": "JAWA BARAT", "district": "BANDUNG BARAT"}, {"lon": 107.503805, "lat": -6.875131, "name": "DUMACO CHEMICALS, PT", "province": "JAWA BARAT", "district": "BANDUNG BARAT"}, {"lon": 107.457141, "lat": -6.832279, "name": "FAJAR ABADI", "province": "JAWA BARAT", "district": "BANDUNG BARAT"}, {"lon": 107.5021327, "lat": -6.904017589, "name": "FAJAR MATARAM SENDAYU, PT", "province": "JAWA BARAT", "district": "BANDUNG BARAT"}, {"lon": 107.49709, "lat": -6.887167, "name": "GANI ARTA DWITUNGGAL, PT", "province": "JAWA BARAT", "district": "BANDUNG BARAT"}, {"lon": 107.507062, "lat": -6.875153, "name": "GARUDA MAS, CV", "province": "JAWA BARAT", "district": "BANDUNG BARAT"}, {"lon": 107.501653, "lat": -6.901649, "name": "INDAFI RAHARJA", "province": "JAWA BARAT", "district": "BANDUNG BARAT"}, {"lon": 107.488168, "lat": -6.886501, "name": "INDAHTEX UTAMA, PT", "province": "JAWA BARAT", "district": "BANDUNG BARAT"}, {"lon": 107.49325, "lat": -6.85531, "name": "INDOFOOD CBP SUKSES MAKMUR TBK, PT", "province": "JAWA BARAT", "district": "BANDUNG BARAT"}, {"lon": 107.496276, "lat": -6.842803, "name": "INDOPEN, CV", "province": "JAWA BARAT", "district": "BANDUNG BARAT"}, {"lon": 107.496389, "lat": -6.894984, "name": "INDO-RAMA SYNTHETICS TBK, PT", "province": "JAWA BARAT", "district": "BANDUNG BARAT"}, {"lon": 107.4886197, "lat": -6.870737245, "name": "INTERMODA KUSUMA, PT", "province": "JAWA BARAT", "district": "BANDUNG BARAT"}, {"lon": 107.4904997, "lat": -6.846833157, "name": "JAMAFAC, PT", "province": "JAWA BARAT", "district": "BANDUNG BARAT"}, {"lon": 107.4997187, "lat": -6.86579479, "name": "JOHAR AGRA ANDALAN, PT", "province": "JAWA BARAT", "district": "BANDUNG BARAT"}, {"lon": 107.492022, "lat": -6.848046, "name": "KANVAS MULIA, CV", "province": "JAWA BARAT", "district": "BANDUNG BARAT"}, {"lon": 107.502903, "lat": -6.863289, "name": "KARISMA ABADI SENTOSA, PT", "province": "JAWA BARAT", "district": "BANDUNG BARAT"}, {"lon": 107.2700039, "lat": -6.4800031, "name": "KARYA KENCANA PUTRA", "province": "JAWA BARAT", "district": "BANDUNG BARAT"}, {"lon": 107.273123, "lat": -6.4956424, "name": "KARYA MEKAR PUTERA SEJAHTERA", "province": "JAWA BARAT", "district": "BANDUNG BARAT"}, {"lon": 107.490772, "lat": -6.838698, "name": "KERTAS PADALARANG, PT", "province": "JAWA BARAT", "district": "BANDUNG BARAT"}, {"lon": 107.454606, "lat": -6.83137, "name": "KURNIA ARTHA PRATIWI, PT", "province": "JAWA BARAT", "district": "BANDUNG BARAT"}, {"lon": 107.427971, "lat": -6.740994, "name": "KWANGDUK WORLDWIDE, PT", "province": "JAWA BARAT", "district": "BANDUNG BARAT"}, {"lon": 107.491613, "lat": -6.866220866, "name": "LAJU KARYA MANDIRI, PT", "province": "JAWA BARAT", "district": "BANDUNG BARAT"}, {"lon": 107.288088, "lat": -6.50900672, "name": "LENTERA MUTIARA SEJATI, PT", "province": "JAWA BARAT", "district": "BANDUNG BARAT"}, {"lon": 107.4906528, "lat": -6.863371477, "name": "LINO PUTRA MANDIRI, PT", "province": "JAWA BARAT", "district": "BANDUNG BARAT"}, {"lon": 107.490376, "lat": -6.863845, "name": "LOTUS LINGGA PRATAMA, PT", "province": "JAWA BARAT", "district": "BANDUNG BARAT"}, {"lon": 107.2949, "lat": -6.5255083, "name": "MARGAHAYU JAYA INDAH PLASTIK", "province": "JAWA BARAT", "district": "BANDUNG BARAT"}, {"lon": 107.501418, "lat": -6.893908, "name": "MARVEL FOOD INDUSTRY, PT", "province": "JAWA BARAT", "district": "BANDUNG BARAT"}, {"lon": 107.503005, "lat": -6.865868, "name": "MEDION FARMA JAYA, PT", "province": "JAWA BARAT", "district": "BANDUNG BARAT"}, {"lon": 107.50393, "lat": -6.87493, "name": "MICHAEL INDONESIA ABADI, PT", "province": "JAWA BARAT", "district": "BANDUNG BARAT"}, {"lon": 107.454333, "lat": -6.832347, "name": "MULTI MARMER ALAM, PT", "province": "JAWA BARAT", "district": "BANDUNG BARAT"}, {"lon": 107.3024041, "lat": -6.5231803, "name": "MUTIARA PERKASA ABADI", "province": "JAWA BARAT", "district": "BANDUNG BARAT"}, {"lon": 107.487387, "lat": -6.886475, "name": "NICE INDONESIA, PT", "province": "JAWA BARAT", "district": "BANDUNG BARAT"}, {"lon": 107.492146, "lat": -6.863559, "name": "ORIENTAL TEXTILE INDONESIA, PT", "province": "JAWA BARAT", "district": "BANDUNG BARAT"}, {"lon": 107.4960709, "lat": -6.828857902, "name": "PANCA AGUNG JAYA, PT", "province": "JAWA BARAT", "district": "BANDUNG BARAT"}, {"lon": 107.504172, "lat": -6.8838615, "name": "PANCA BUANA ABADI, PT", "province": "JAWA BARAT", "district": "BANDUNG BARAT"}, {"lon": 107.503227, "lat": -6.874133, "name": "PERDANA FIRSTA GARMENT, PT", "province": "JAWA BARAT", "district": "BANDUNG BARAT"}, {"lon": 107.29005, "lat": -6.500056, "name": "PILLAR UTAMA CONTRINDO", "province": "JAWA BARAT", "district": "BANDUNG BARAT"}, {"lon": 107.295739, "lat": -6.515837, "name": "PLANGI JAYA INDONESIA", "province": "JAWA BARAT", "district": "BANDUNG BARAT"}, {"lon": 107.503786, "lat": -6.87152, "name": "PRABHA UNGGUL, PT", "province": "JAWA BARAT", "district": "BANDUNG BARAT"}, {"lon": 107.290028, "lat": -6.5200021, "name": "PRIMA LAKTO SEHAT", "province": "JAWA BARAT", "district": "BANDUNG BARAT"}, {"lon": 107.497421, "lat": -6.902531, "name": "RAJAWALI SUMBER MAKMUR, PT", "province": "JAWA BARAT", "district": "BANDUNG BARAT"}, {"lon": 107.2900048, "lat": -6.5100029, "name": "RENALTECH MITRA ABADI", "province": "JAWA BARAT", "district": "BANDUNG BARAT"}, {"lon": 107.503114, "lat": -6.895682, "name": "SAN CENTRAL INDAH, PT", "province": "JAWA BARAT", "district": "BANDUNG BARAT"}, {"lon": 107.49802, "lat": -6.88493, "name": "SANWA PARTS INDONESIA, PT", "province": "JAWA BARAT", "district": "BANDUNG BARAT"}, {"lon": 107.496721, "lat": -6.905424, "name": "SAPTA PELITA ASIA, PT", "province": "JAWA BARAT", "district": "BANDUNG BARAT"}, {"lon": 107.501127, "lat": -6.861775, "name": "SARANA MAKIN MULYA, PT", "province": "JAWA BARAT", "district": "BANDUNG BARAT"}, {"lon": 107.5005609, "lat": -6.902973786, "name": "SENAYAN SANDANG MAKMUR, PT", "province": "JAWA BARAT", "district": "BANDUNG BARAT"}, {"lon": 107.270041, "lat": -6.4800097, "name": "SERENA HARSA UTAMA", "province": "JAWA BARAT", "district": "BANDUNG BARAT"}, {"lon": 107.497138, "lat": -6.883605, "name": "SINAR PANCA MITRA INDONESIA, PT", "province": "JAWA BARAT", "district": "BANDUNG BARAT"}, {"lon": 107.502757, "lat": -6.893124, "name": "SINAR PARA TARUNA, PT", "province": "JAWA BARAT", "district": "BANDUNG BARAT"}, {"lon": 107.290015, "lat": -6.5300012, "name": "SINCUNG LAJU CITRA JAYA", "province": "JAWA BARAT", "district": "BANDUNG BARAT"}, {"lon": 107.4902773, "lat": -6.869656088, "name": "SNOGEN INDONESIA, PT", "province": "JAWA BARAT", "district": "BANDUNG BARAT"}, {"lon": 107.490449, "lat": -6.862695078, "name": "SOLAS LANGGENG SEJAHTERA, PT", "province": "JAWA BARAT", "district": "BANDUNG BARAT"}, {"lon": 107.47104, "lat": -6.838057, "name": "SUBUR JAYA, CV/KUE SUKASARI", "province": "JAWA BARAT", "district": "BANDUNG BARAT"}, {"lon": 107.46715, "lat": -6.84425, "name": "SUGIH INSTRUMENDO ABADI, PT", "province": "JAWA BARAT", "district": "BANDUNG BARAT"}, {"lon": 107.494162, "lat": -6.865548, "name": "SWADAYA,CV", "province": "JAWA BARAT", "district": "BANDUNG BARAT"}, {"lon": 107.2931, "lat": -6.5200065, "name": "SWAN TRICHEL TEXTILE", "province": "JAWA BARAT", "district": "BANDUNG BARAT"}, {"lon": 107.4924698, "lat": -6.865704, "name": "TIRTA AMARTA BOTTLING COMPANY, PT", "province": "JAWA BARAT", "district": "BANDUNG BARAT"}, {"lon": 107.506148, "lat": -6.874394, "name": "TRONINDO ANUGRAH JAYA, PT", "province": "JAWA BARAT", "district": "BANDUNG BARAT"}, {"lon": 107.3000059, "lat": -6.5200038, "name": "VASCO PRIMA ABADI", "province": "JAWA BARAT", "district": "BANDUNG BARAT"}, {"lon": 107.503107, "lat": -6.890104, "name": "VICTORY PAN MULTITEX, PT/VICTORY GARMINTEX", "province": "JAWA BARAT", "district": "BANDUNG BARAT"}, {"lon": 107.491132, "lat": -6.895434, "name": "WARNA MANDIRI, PT", "province": "JAWA BARAT", "district": "BANDUNG BARAT"}, {"lon": 107.290046, "lat": -6.520074, "name": "WARNA MIKHA MITRA SEJATI", "province": "JAWA BARAT", "district": "BANDUNG BARAT"}, {"lon": 107.4930185, "lat": -6.865230239, "name": "YOLITA JAYA INDONESIA, PT", "province": "JAWA BARAT", "district": "BANDUNG BARAT"}, {"lon": 122.860385, "lat": -0.924325, "name": "KELOLA MINA LAUT, PT", "province": "SULAWESI TENGAH", "district": "BANGGAI"}, {"lon": 122.833801, "lat": -0.930702, "name": "MULTI NABATI SULAWESI, PT", "province": "SULAWESI TENGAH", "district": "BANGGAI"}, {"lon": 122.6077778, "lat": -0.912447222, "name": "PANCA AMARA UTAMA", "province": "SULAWESI TENGAH", "district": "BANGGAI"}, {"lon": 123.494863, "lat": -1.605065, "name": "99, CV", "province": "SULAWESI TENGAH", "district": "BANGGAI LAUT"}, {"lon": 106.10925, "lat": -2.13407, "name": "ARTHA CIPTA LANGGENG, PT", "province": "KEPULAUAN BANGKA BELITUNG", "district": "BANGKA"}, {"lon": 106.134279, "lat": -1.866486, "name": "ATD MAKMUR MANDIRI, PT", "province": "KEPULAUAN BANGKA BELITUNG", "district": "BANGKA"}, {"lon": 106.105187, "lat": -1.937137, "name": "BANGKA ASINDO AGRI, PT", "province": "KEPULAUAN BANGKA BELITUNG", "district": "BANGKA"}, {"lon": 106.00371, "lat": -1.759057, "name": "BUANA MAS ABADI, PT/BANGKA MANDIRI ABADI, PT", "province": "KEPULAUAN BANGKA BELITUNG", "district": "BANGKA"}, {"lon": 105.791395, "lat": -1.944138, "name": "GEMILANG CAHAYA MENTARI, PT", "province": "KEPULAUAN BANGKA BELITUNG", "district": "BANGKA"}, {"lon": 105.988434, "lat": -1.622655, "name": "GUNUNG PELAWAN LESTARI, PT", "province": "KEPULAUAN BANGKA BELITUNG", "district": "BANGKA"}, {"lon": 105.980963, "lat": -2.078268, "name": "KARINI UTAMA, PT", "province": "KEPULAUAN BANGKA BELITUNG", "district": "BANGKA"}, {"lon": 106.134591, "lat": -1.8643, "name": "MITRA STANIA PRIMA, PT", "province": "KEPULAUAN BANGKA BELITUNG", "district": "BANGKA"}, {"lon": 106.005905, "lat": -2.167485, "name": "PUTRA BANGKA MANDIRI, PT", "province": "KEPULAUAN BANGKA BELITUNG", "district": "BANGKA"}, {"lon": 106.13386, "lat": -1.86106, "name": "REFINED BANGKA TIN, PT", "province": "KEPULAUAN BANGKA BELITUNG", "district": "BANGKA"}, {"lon": 105.854042, "lat": -2.032013, "name": "SINAR BATURUSA PRIMA, PT", "province": "KEPULAUAN BANGKA BELITUNG", "district": "BANGKA"}, {"lon": 105.6465, "lat": -2.07535, "name": "SAWINDO KENCANA, PT", "province": "KEPULAUAN BANGKA BELITUNG", "district": "BANGKA BARAT"}, {"lon": 106.029433, "lat": -2.543867, "name": "BUMI SAWIT SUKSES PRATAMA, P", "province": "KEPULAUAN BANGKA BELITUNG", "district": "BANGKA SELATAN"}, {"lon": 106.0930717, "lat": -2.155268751, "name": "BANGKA INDAH, PT", "province": "KEPULAUAN BANGKA BELITUNG", "district": "BANGKA TENGAH"}, {"lon": 112.67953, "lat": -7.04466, "name": "ADILUHUNG SARANASEGARA INDONESIA, PT", "province": "JAWA TIMUR", "district": "BANGKALAN"}, {"lon": 112.820833, "lat": -7.068333, "name": "LAKSANA", "province": "JAWA TIMUR", "district": "BANGKALAN"}, {"lon": 112.72238, "lat": -7.166, "name": "SUMBER MAKMUR, UD", "province": "JAWA TIMUR", "district": "BANGKALAN"}, {"lon": 115.3379488, "lat": -8.504922455, "name": "DEVINE INDONESIA, PT", "province": "BALI", "district": "BANGLI"}, {"lon": 115.33378, "lat": -8.461082, "name": "SARI RAMBUT, PT", "province": "BALI", "district": "BANGLI"}, {"lon": 108.47628, "lat": -7.38201, "name": "BERKAT KARUNIA SURYA, PT", "province": "JAWA BARAT", "district": "BANJAR"}, {"lon": 108.6472222, "lat": -7.364444, "name": "KIDANG MAS", "province": "JAWA BARAT", "district": "BANJAR"}, {"lon": 108.4847222, "lat": -7.3838889, "name": "SANDY PERSADA, CV", "province": "JAWA BARAT", "district": "BANJAR"}, {"lon": 108.50267, "lat": -7.38511, "name": "SUNG CHANG INDONESIA, PT", "province": "JAWA BARAT", "district": "BANJAR"}, {"lon": 114.85183, "lat": -3.417857, "name": "ABRAHAM PRATAMA", "province": "KALIMANTAN SELATAN", "district": "BANJAR"}, {"lon": 114.665666, "lat": -3.398909, "name": "CAKRA PERKASA JAYAMULIA, PT", "province": "KALIMANTAN SELATAN", "district": "BANJAR"}, {"lon": 115.297778, "lat": -3.2902777, "name": "ELBANA ABADI JAYA, PT", "province": "KALIMANTAN SELATAN", "district": "BANJAR"}, {"lon": 114.949593, "lat": -3.490226, "name": "KALIMANTAN FOOD INDUSTRY, PT", "province": "KALIMANTAN SELATAN", "district": "BANJAR"}, {"lon": 114.988618, "lat": -3.490212, "name": "MANDRAPURNA ADITAMA", "province": "KALIMANTAN SELATAN", "district": "BANJAR"}, {"lon": 114.872049, "lat": -3.054092, "name": "PALMINA UTAMA, PT", "province": "KALIMANTAN SELATAN", "district": "BANJAR"}, {"lon": 114.953438, "lat": -3.488126, "name": "PULAU BARU MAKMUR, PT", "province": "KALIMANTAN SELATAN", "district": "BANJAR"}, {"lon": 114.849588, "lat": -3.436082, "name": "SOLID UNIVERSAL INDONESIA", "province": "KALIMANTAN SELATAN", "district": "BANJAR"}, {"lon": 114.826602, "lat": -3.426636, "name": "SUMBER AGUNG", "province": "KALIMANTAN SELATAN", "district": "BANJAR"}, {"lon": 114.66307, "lat": -3.444036, "name": "SUPRA NAGAMAS BORNEO", "province": "KALIMANTAN SELATAN", "district": "BANJAR"}, {"lon": 114.661763, "lat": -3.383108, "name": "TJOKRO BERSAUDARA BANJARINDO, PT", "province": "KALIMANTAN SELATAN", "district": "BANJAR"}, {"lon": 114.6669444, "lat": -3.4, "name": "UNIVERSAL TEKNO REKSAJAYA, PT", "province": "KALIMANTAN SELATAN", "district": "BANJAR"}, {"lon": 114.6872222, "lat": -3.44916667, "name": "ARMADA MIX, PT", "province": "KALIMANTAN SELATAN", "district": "BANJAR BARU"}, {"lon": 114.694259, "lat": -3.438726, "name": "BUDI JAYA BANJARINDO, PT", "province": "KALIMANTAN SELATAN", "district": "BANJAR BARU"}, {"lon": 114.70927, "lat": -3.46042, "name": "JURAGAN ATAP KALSEL", "province": "KALIMANTAN SELATAN", "district": "BANJAR BARU"}, {"lon": 114.703055, "lat": -3.459502, "name": "KAPUAS TATA STEEL, PT", "province": "KALIMANTAN SELATAN", "district": "BANJAR BARU"}, {"lon": 114.6941667, "lat": -3.4397222, "name": "MITRA USAHA MANDIRI, PT", "province": "KALIMANTAN SELATAN", "district": "BANJAR BARU"}, {"lon": 114.716944, "lat": -3.44555, "name": "MOHUSINDO, PT", "province": "KALIMANTAN SELATAN", "district": "BANJAR BARU"}, {"lon": 114.71986, "lat": -3.44026, "name": "NUSANTARA JAYA MIX, PT", "province": "KALIMANTAN SELATAN", "district": "BANJAR BARU"}, {"lon": 114.73209, "lat": -3.44178, "name": "SAMATOR GAS INDUSTRI, PT", "province": "KALIMANTAN SELATAN", "district": "BANJAR BARU"}, {"lon": 114.69818, "lat": -3.44239, "name": "SARANA CIPTA MANDIRI, PT", "province": "KALIMANTAN SELATAN", "district": "BANJAR BARU"}, {"lon": 114.72461, "lat": -3.43985, "name": "SARIKAYA SEGA UTAMA, PT", "province": "KALIMANTAN SELATAN", "district": "BANJAR BARU"}, {"lon": 114.73533, "lat": -3.44167, "name": "SAWITAKARYA MANUNGGUL", "province": "KALIMANTAN SELATAN", "district": "BANJAR BARU"}, {"lon": 114.446, "lat": -3.263, "name": "SINAR KENCANA INTI PERKASA", "province": "KALIMANTAN SELATAN", "district": "BANJAR BARU"}, {"lon": 114.582175, "lat": -3.34489, "name": "BANUA LIMA SEJURUS, PT", "province": "KALIMANTAN SELATAN", "district": "BANJARMASIN"}, {"lon": 114.5591467, "lat": -3.346389, "name": "BINES RAYA, PT", "province": "KALIMANTAN SELATAN", "district": "BANJARMASIN"}, {"lon": 114.605346, "lat": -3.304338, "name": "BINTANG TOP INDUSTRY", "province": "KALIMANTAN SELATAN", "district": "BANJARMASIN"}, {"lon": 114.5613232, "lat": -3.3211857, "name": "INSAN BONAFIDE, PT", "province": "KALIMANTAN SELATAN", "district": "BANJARMASIN"}, {"lon": 114.5826086, "lat": -3.3379258, "name": "KALIMANTAN FISHERY, PT", "province": "KALIMANTAN SELATAN", "district": "BANJARMASIN"}, {"lon": 114.549722, "lat": -3.339722, "name": "MANTUIL RAYA, PT", "province": "KALIMANTAN SELATAN", "district": "BANJARMASIN"}, {"lon": 114.579722, "lat": -3.357778, "name": "PUTRA BORNEO LESTARI, PT", "province": "KALIMANTAN SELATAN", "district": "BANJARMASIN"}, {"lon": 114.564173, "lat": -3.320015, "name": "WILSON LAUTAN KARET, PT", "province": "KALIMANTAN SELATAN", "district": "BANJARMASIN"}, {"lon": 114.583426, "lat": -3.33086, "name": "WIRONTONO BARU, PT", "province": "KALIMANTAN SELATAN", "district": "BANJARMASIN"}, {"lon": 114.5660865, "lat": -3.3439752, "name": "YOBEL UTAMA SEAFOOD INDONESIA", "province": "KALIMANTAN SELATAN", "district": "BANJARMASIN"}, {"lon": 109.3844, "lat": -7.2521, "name": "BERKAH RIZQI", "province": "JAWA TENGAH", "district": "BANJARNEGARA"}, {"lon": 109.3541, "lat": -7.0451, "name": "CHAWAN GARMEN ABADI", "province": "JAWA TENGAH", "district": "BANJARNEGARA"}, {"lon": 109.3814, "lat": -7.235, "name": "COSMOPROF INDOKARYA, PT", "province": "JAWA TENGAH", "district": "BANJARNEGARA"}, {"lon": 109.4447, "lat": -7.2315, "name": "HANMI HAIR INTERNATIONAL, PT", "province": "JAWA TENGAH", "district": "BANJARNEGARA"}, {"lon": 109.7599174, "lat": -7.2056917, "name": "PAGILARAN, PT", "province": "JAWA TENGAH", "district": "BANJARNEGARA"}, {"lon": 109.3835, "lat": -7.2443, "name": "PURNAMA ASIH SURYA INDONESIA, PT", "province": "JAWA TENGAH", "district": "BANJARNEGARA"}, {"lon": 109.2633, "lat": -7.2732, "name": "PUTRA MANDIRI,UD", "province": "JAWA TENGAH", "district": "BANJARNEGARA"}, {"lon": 109.5424, "lat": -7.127, "name": "TRI SAKTI, UD", "province": "JAWA TENGAH", "district": "BANJARNEGARA"}, {"lon": 109.3341, "lat": -7.2602, "name": "VERONIQUE INDONESIA, PT", "province": "JAWA TENGAH", "district": "BANJARNEGARA"}, {"lon": 119.98309, "lat": -5.52589, "name": "KPRI RADAR", "province": "SULAWESI SELATAN", "district": "BANTAENG"}, {"lon": 110.43675, "lat": -7.85694, "name": "ADI SATRIA ABADI, PT", "province": "DI YOGYAKARTA", "district": "BANTUL"}, {"lon": 110.42028, "lat": -7.85278, "name": "AGRINDO SUPRAFOOD, CV", "province": "DI YOGYAKARTA", "district": "BANTUL"}, {"lon": 110.32801, "lat": -7.80491, "name": "ALMI FURNITURE PERDANA, PT", "province": "DI YOGYAKARTA", "district": "BANTUL"}, {"lon": 110.33701, "lat": -7.7984, "name": "AMARTA FURNITURE, CV", "province": "DI YOGYAKARTA", "district": "BANTUL"}, {"lon": 110.31612, "lat": -7.86728, "name": "AMARTHA INDOTAMA, CV", "province": "DI YOGYAKARTA", "district": "BANTUL"}, {"lon": 110.24334, "lat": -7.84891, "name": "ANGGUN KREASI GARMEN, PT", "province": "DI YOGYAKARTA", "district": "BANTUL"}, {"lon": 110.34533, "lat": -7.93323, "name": "ASYIFA MITRA GARMENTAMA", "province": "DI YOGYAKARTA", "district": "BANTUL"}, {"lon": 110.43786, "lat": -7.85631, "name": "BINTANG ALAM SEMESTA, PT", "province": "DI YOGYAKARTA", "district": "BANTUL"}, {"lon": 110.44151, "lat": -7.83673, "name": "COCOON ASIA, CV", "province": "DI YOGYAKARTA", "district": "BANTUL"}, {"lon": 110.23901, "lat": -7.82517, "name": "DAGSAP ENDURA EATORE, PT", "province": "DI YOGYAKARTA", "district": "BANTUL"}, {"lon": 110.35555, "lat": -7.87019, "name": "DEKOR ASIA JAYAKARYA, PT", "province": "DI YOGYAKARTA", "district": "BANTUL"}, {"lon": 110.344749, "lat": -7.846307, "name": "DIAN CIPTA SEJAHTERA, PT", "province": "DI YOGYAKARTA", "district": "BANTUL"}, {"lon": 110.43744, "lat": -7.84898, "name": "DONG YOUNG TRESS INDONESIA, PT", "province": "DI YOGYAKARTA", "district": "BANTUL"}, {"lon": 110.34121, "lat": -7.80326, "name": "GRAMASURYA, PT", "province": "DI YOGYAKARTA", "district": "BANTUL"}, {"lon": 110.353529, "lat": -7.860602, "name": "IDE STUDIO INDONESIA, PT (THE CARPENTER)", "province": "DI YOGYAKARTA", "district": "BANTUL"}, {"lon": 110.3282, "lat": -7.8176, "name": "IGP INTERNASIONAL, PT", "province": "DI YOGYAKARTA", "district": "BANTUL"}, {"lon": 110.355136, "lat": -7.858128, "name": "JAGO FURNITURE, PT", "province": "DI YOGYAKARTA", "district": "BANTUL"}, {"lon": 110.38971, "lat": -7.84342, "name": "KAYU MANIS, CV", "province": "DI YOGYAKARTA", "district": "BANTUL"}, {"lon": 110.35202, "lat": -7.87391, "name": "KHARISMA EKSPORT, PT", "province": "DI YOGYAKARTA", "district": "BANTUL"}, {"lon": 110.374188, "lat": -7.836619, "name": "KOOC KREASI, PT", "province": "DI YOGYAKARTA", "district": "BANTUL"}, {"lon": 110.320197, "lat": -7.838683, "name": "MAESINDO INDONESIA, PT", "province": "DI YOGYAKARTA", "district": "BANTUL"}, {"lon": 110.35275, "lat": -7.86975, "name": "MAX, CV", "province": "DI YOGYAKARTA", "district": "BANTUL"}, {"lon": 110.361852, "lat": -7.843797, "name": "MERAPI AGUNG LESTARI, PT", "province": "DI YOGYAKARTA", "district": "BANTUL"}, {"lon": 110.30954, "lat": -7.90701, "name": "NATAJAYA BNH INDONESIA", "province": "DI YOGYAKARTA", "district": "BANTUL"}, {"lon": 110.27763, "lat": -7.79035, "name": "NAVIL NATURAL, CV/GULA SEMUT ORGANIK (MIRANTI)", "province": "DI YOGYAKARTA", "district": "BANTUL"}, {"lon": 110.32362, "lat": -7.839613, "name": "NEBULA CRAFTWORK", "province": "DI YOGYAKARTA", "district": "BANTUL"}, {"lon": 110.26871, "lat": -7.84025, "name": "OUT OF ASIA", "province": "DI YOGYAKARTA", "district": "BANTUL"}, {"lon": 110.38561, "lat": -7.84333, "name": "PACKAGING INTEGRA CENTER, PT", "province": "DI YOGYAKARTA", "district": "BANTUL"}, {"lon": 110.41527, "lat": -7.89194, "name": "PANJI JAYA, UD", "province": "DI YOGYAKARTA", "district": "BANTUL"}, {"lon": 110.26089, "lat": -7.80043, "name": "PARADISE ISLAND FURNITURE, PT", "province": "DI YOGYAKARTA", "district": "BANTUL"}, {"lon": 110.451011, "lat": -7.82637, "name": "PERWITA KARYA, PT", "province": "DI YOGYAKARTA", "district": "BANTUL"}, {"lon": 110.349651, "lat": -7.775308, "name": "PESONA BINTANG UTAMA, PT", "province": "DI YOGYAKARTA", "district": "BANTUL"}, {"lon": 110.38972, "lat": -7.84667, "name": "PLANK LIVING INDONESIA", "province": "DI YOGYAKARTA", "district": "BANTUL"}, {"lon": 110.39581, "lat": -7.83583, "name": "PUTRA FARMA YOGYAKARTA, CV", "province": "DI YOGYAKARTA", "district": "BANTUL"}, {"lon": 110.35215, "lat": -7.88201, "name": "ROMA EXPORT, PT", "province": "DI YOGYAKARTA", "district": "BANTUL"}, {"lon": 110.35717, "lat": -7.826661, "name": "SAMITEX SEWON, PT", "province": "DI YOGYAKARTA", "district": "BANTUL"}, {"lon": 110.40917, "lat": -7.85806, "name": "SAMKU GLOVE INDONESIA, PT", "province": "DI YOGYAKARTA", "district": "BANTUL"}, {"lon": 110.351098, "lat": -7.91074, "name": "SATU BUMI", "province": "DI YOGYAKARTA", "district": "BANTUL"}, {"lon": 110.25658, "lat": -7.80691, "name": "SK GLOVE INDONESIA, PT", "province": "DI YOGYAKARTA", "district": "BANTUL"}, {"lon": 110.40972, "lat": -7.81667, "name": "SUMBER BARU FURNITURE, CV", "province": "DI YOGYAKARTA", "district": "BANTUL"}, {"lon": 110.4125, "lat": -7.82806, "name": "SURADI SEJAHTERA RAYA, PT", "province": "DI YOGYAKARTA", "district": "BANTUL"}, {"lon": 110.281622, "lat": -7.879801, "name": "SUSTI SARANA MANDIRI, PT", "province": "DI YOGYAKARTA", "district": "BANTUL"}, {"lon": 110.35142, "lat": -7.86791, "name": "TEAK TEMPTATION, PT", "province": "DI YOGYAKARTA", "district": "BANTUL"}, {"lon": 110.33751, "lat": -7.84246, "name": "TIMBOEL, PT", "province": "DI YOGYAKARTA", "district": "BANTUL"}, {"lon": 110.24596, "lat": -7.81742, "name": "VARIA USAHA BETON, PT", "province": "DI YOGYAKARTA", "district": "BANTUL"}, {"lon": 110.41095, "lat": -7.8442, "name": "YOGYA INDO GLOBAL, PT", "province": "DI YOGYAKARTA", "district": "BANTUL"}, {"lon": 110.43779, "lat": -7.85614, "name": "YOGYA KARYA ANDINI, CV", "province": "DI YOGYAKARTA", "district": "BANTUL"}, {"lon": 110.373571, "lat": -7.829999, "name": "YOGYAKARTA TEMBAKAU INDONESIA, PT", "province": "DI YOGYAKARTA", "district": "BANTUL"}, {"lon": 104.6412989, "lat": -2.9054562, "name": "ALAM PERKASA LESTARI, PT", "province": "SUMATERA SELATAN", "district": "BANYU ASIN"}, {"lon": 104.64281, "lat": -2.91878, "name": "ANUGERAH TRIDAYA MANDIRI, PT", "province": "SUMATERA SELATAN", "district": "BANYU ASIN"}, {"lon": 104.2646529, "lat": -2.84746, "name": "ANUGRAH DJAM SAWIT LESTARI", "province": "SUMATERA SELATAN", "district": "BANYU ASIN"}, {"lon": 104.63633, "lat": -2.91571, "name": "BANYUASIN AGRO MANDIRI", "province": "SUMATERA SELATAN", "district": "BANYU ASIN"}, {"lon": 104.73478, "lat": -2.83917, "name": "BERKAT SAWIT SEJATI, PT", "province": "SUMATERA SELATAN", "district": "BANYU ASIN"}, {"lon": 104.72409, "lat": -2.84459, "name": "BINTANG GASING PERSADA, PT", "province": "SUMATERA SELATAN", "district": "BANYU ASIN"}, {"lon": 104.4424, "lat": -2.512, "name": "BOGA UTAMA", "province": "SUMATERA SELATAN", "district": "BANYU ASIN"}, {"lon": 104.6438, "lat": -2.903947, "name": "BUMI PASIR PUTIH, PT", "province": "SUMATERA SELATAN", "district": "BANYU ASIN"}, {"lon": 104.74616, "lat": -2.80537, "name": "BUYUNG PUTRA PANGAN, PT", "province": "SUMATERA SELATAN", "district": "BANYU ASIN"}, {"lon": 104.15064, "lat": -2.53721, "name": "CAHAYA CEMERLANG LESTARI, PT", "province": "SUMATERA SELATAN", "district": "BANYU ASIN"}, {"lon": 104.736131, "lat": -2.85484, "name": "GLOBAL TEKNIK INDUSTRI", "province": "SUMATERA SELATAN", "district": "BANYU ASIN"}, {"lon": 104.73332, "lat": -2.86003, "name": "INDOFOOD CBP SUKSES MAKMUR, PT", "province": "SUMATERA SELATAN", "district": "BANYU ASIN"}, {"lon": 104.73585, "lat": -2.84178, "name": "INTI BETON SUKSES PRATAMA, PT", "province": "SUMATERA SELATAN", "district": "BANYU ASIN"}, {"lon": 104.73457, "lat": -2.81524, "name": "KONVERTA MITRA ABADI", "province": "SUMATERA SELATAN", "district": "BANYU ASIN"}, {"lon": 104.71996, "lat": -2.84309, "name": "MARDEC MUSI LESTARI, PT", "province": "SUMATERA SELATAN", "district": "BANYU ASIN"}, {"lon": 104.875914, "lat": -2.96351, "name": "MARIANA BAHAGIA, PT", "province": "SUMATERA SELATAN", "district": "BANYU ASIN"}, {"lon": 104.6445, "lat": -2.91497, "name": "MARS LESTARI, PT", "province": "SUMATERA SELATAN", "district": "BANYU ASIN"}, {"lon": 104.335, "lat": -2.5727, "name": "MELANIA INDONESIA, PT", "province": "SUMATERA SELATAN", "district": "BANYU ASIN"}, {"lon": 104.632299, "lat": -2.919665, "name": "NIPPON INDOSARI TBK, PT", "province": "SUMATERA SELATAN", "district": "BANYU ASIN"}, {"lon": 104.73418, "lat": -2.87125, "name": "SAMATOR GAS INDUSTRI, PT", "province": "SUMATERA SELATAN", "district": "BANYU ASIN"}, {"lon": 104.3834, "lat": -2.5446, "name": "SEGARA MAKMUR SEJAHTERA, PT", "province": "SUMATERA SELATAN", "district": "BANYU ASIN"}, {"lon": 104.65081, "lat": -2.90798, "name": "SINAR SOSRO, PT", "province": "SUMATERA SELATAN", "district": "BANYU ASIN"}, {"lon": 104.73414, "lat": -2.8494, "name": "SRIWIJAYA ALAM SEGAR, PT", "province": "SUMATERA SELATAN", "district": "BANYU ASIN"}, {"lon": 104.73647, "lat": -2.81567, "name": "SRIWIJAYA PALM OIL INDONESIA, PT", "province": "SUMATERA SELATAN", "district": "BANYU ASIN"}, {"lon": 104.73571, "lat": -2.79609, "name": "SUTOPO LESTARI JAYA, PT", "province": "SUMATERA SELATAN", "district": "BANYU ASIN"}, {"lon": 104.4413, "lat": -2.79672, "name": "TEDMOND FIBRE GLASS", "province": "SUMATERA SELATAN", "district": "BANYU ASIN"}, {"lon": 104.6344, "lat": -2.917008, "name": "TIRTA FRESINDO JAYA, PT", "province": "SUMATERA SELATAN", "district": "BANYU ASIN"}, {"lon": 104.64298, "lat": -2.92543, "name": "TIRTA SUKSES PERKASA, PT", "province": "SUMATERA SELATAN", "district": "BANYU ASIN"}, {"lon": 104.896591, "lat": -2.803214, "name": "TRANSPACIFIC AGRO INDUSTRY", "province": "SUMATERA SELATAN", "district": "BANYU ASIN"}, {"lon": 104.8009199, "lat": -2.0406196, "name": "TRITA MUSI PRASADA", "province": "SUMATERA SELATAN", "district": "BANYU ASIN"}, {"lon": 104.67361, "lat": -2.91393, "name": "TUNAS BARU LAMPUNG, PT", "province": "SUMATERA SELATAN", "district": "BANYU ASIN"}, {"lon": 104.664636, "lat": -2.884431, "name": "ZENITH DJAJA, PT", "province": "SUMATERA SELATAN", "district": "BANYU ASIN"}, {"lon": 109.29917, "lat": -7.50444, "name": "AJIWANA TANGGUH NUSANTARA, PT", "province": "JAWA TENGAH", "district": "BANYUMAS"}, {"lon": 109.283485, "lat": -7.424795, "name": "ARIDAS KARYA SATRIA, PT", "province": "JAWA TENGAH", "district": "BANYUMAS"}, {"lon": 109.156806, "lat": -7.411338, "name": "BANYUMAS MEGAH", "province": "JAWA TENGAH", "district": "BANYUMAS"}, {"lon": 109.315857, "lat": -7.59446, "name": "BIMA NUGRAHA, PT", "province": "JAWA TENGAH", "district": "BANYUMAS"}, {"lon": 109.24877, "lat": -7.43505, "name": "BIO TAKARA, PT", "province": "JAWA TENGAH", "district": "BANYUMAS"}, {"lon": 109.251538, "lat": -7.437969, "name": "BIO TAKARA, PT", "province": "JAWA TENGAH", "district": "BANYUMAS"}, {"lon": 109.297799, "lat": -7.513419, "name": "BOYANG INDUSTRIAL, PT", "province": "JAWA TENGAH", "district": "BANYUMAS"}, {"lon": 109.28434, "lat": -7.428075, "name": "INDESSO AROMA, PT", "province": "JAWA TENGAH", "district": "BANYUMAS"}, {"lon": 109.29945, "lat": -7.50088, "name": "JADI KUAT BERSAMA, PT", "province": "JAWA TENGAH", "district": "BANYUMAS"}, {"lon": 109.279966, "lat": -7.387436, "name": "MIDAS INDONESIA, PT", "province": "JAWA TENGAH", "district": "BANYUMAS"}, {"lon": 109.23779, "lat": -7.632317, "name": "MONO JAYA, CV", "province": "JAWA TENGAH", "district": "BANYUMAS"}, {"lon": 109.30222, "lat": -7.47944, "name": "PUNDI INDOKAYU INDUSTRI, PT", "province": "JAWA TENGAH", "district": "BANYUMAS"}, {"lon": 109.293589, "lat": -7.512216, "name": "SINAR MONO, CV", "province": "JAWA TENGAH", "district": "BANYUMAS"}, {"lon": 109.259006, "lat": -7.39147, "name": "TAKASAGO INDONESIA, PT", "province": "JAWA TENGAH", "district": "BANYUMAS"}, {"lon": 109.1677, "lat": -7.41349, "name": "VARIA USAHA BETON, PT", "province": "JAWA TENGAH", "district": "BANYUMAS"}, {"lon": 114.28271, "lat": -8.28928, "name": "ALBASIA PRIMA LESTARI, PT", "province": "JAWA TIMUR", "district": "BANYUWANGI"}, {"lon": 114.336658, "lat": -8.427153, "name": "AVILA PRIMA INTRA MAKMUR, PT", "province": "JAWA TIMUR", "district": "BANYUWANGI"}, {"lon": 114.411177, "lat": -8.097916, "name": "BANYUWANGI CANNERY INDONESIA, PT", "province": "JAWA TIMUR", "district": "BANYUWANGI"}, {"lon": 114.33223, "lat": -8.16654, "name": "BAROKAH, UD", "province": "JAWA TIMUR", "district": "BANYUWANGI"}, {"lon": 114.342002, "lat": -8.438803, "name": "BLAMBANGAN FOODPACKERS INDONESIA, PT", "province": "JAWA TIMUR", "district": "BANYUWANGI"}, {"lon": 114.303906, "lat": -8.403736, "name": "BUDI JAYA, UD", "province": "JAWA TIMUR", "district": "BANYUWANGI"}, {"lon": 114.32672, "lat": -8.3041, "name": "CAHAYA TERANG", "province": "JAWA TIMUR", "district": "BANYUWANGI"}, {"lon": 114.31414, "lat": -8.28202, "name": "DUTA BANGSA MANDIRI, PT", "province": "JAWA TIMUR", "district": "BANYUWANGI"}, {"lon": 114.38212, "lat": -8.18721, "name": "ESPRITE NOMADE, PT", "province": "JAWA TIMUR", "district": "BANYUWANGI"}, {"lon": 114.1321, "lat": -8.3557, "name": "GEMBIRA, UD", "province": "JAWA TIMUR", "district": "BANYUWANGI"}, {"lon": 114.33522, "lat": -8.43769, "name": "HASIL LAUT, UD", "province": "JAWA TIMUR", "district": "BANYUWANGI"}, {"lon": 114.36744, "lat": -8.21881, "name": "INDO JAYA PRATAMA, CV", "province": "JAWA TIMUR", "district": "BANYUWANGI"}, {"lon": 114.39391, "lat": -8.154633, "name": "IROHA SIDAT INDONESIA, PT", "province": "JAWA TIMUR", "district": "BANYUWANGI"}, {"lon": 114.41867, "lat": -8.03697, "name": "KEONG MAS PERMAI, CV", "province": "JAWA TIMUR", "district": "BANYUWANGI"}, {"lon": 114.342499, "lat": -8.446916, "name": "MAJU JAYA, UD", "province": "JAWA TIMUR", "district": "BANYUWANGI"}, {"lon": 114.34028, "lat": -8.441503, "name": "MAYA MUNCAR, PT", "province": "JAWA TIMUR", "district": "BANYUWANGI"}, {"lon": 114.33489, "lat": -8.44451, "name": "MINA JAYA LESTARI", "province": "JAWA TIMUR", "district": "BANYUWANGI"}, {"lon": 114.341092, "lat": -8.444745, "name": "PASIFIC HARVEST, CV", "province": "JAWA TIMUR", "district": "BANYUWANGI"}, {"lon": 114.34011, "lat": -8.43422, "name": "PERFECT INTERNATIONAL FOOD, PT", "province": "JAWA TIMUR", "district": "BANYUWANGI"}, {"lon": 114.09263, "lat": -8.215104, "name": "RAJAWALI", "province": "JAWA TIMUR", "district": "BANYUWANGI"}, {"lon": 114.328301, "lat": -8.237485, "name": "SAMI JAYA", "province": "JAWA TIMUR", "district": "BANYUWANGI"}, {"lon": 114.34171, "lat": -8.44108, "name": "SARI LAUT JAYA FOOD PRODUCTS", "province": "JAWA TIMUR", "district": "BANYUWANGI"}, {"lon": 114.338086, "lat": -8.438433, "name": "SARIFEED INDOJAYA, PT", "province": "JAWA TIMUR", "district": "BANYUWANGI"}, {"lon": 114.389211, "lat": -8.163941, "name": "SEMEN BOSOWA BANYUWANGI, PT", "province": "JAWA TIMUR", "district": "BANYUWANGI"}, {"lon": 114.187546, "lat": -8.38679, "name": "SUBUR ABADI, PP", "province": "JAWA TIMUR", "district": "BANYUWANGI"}, {"lon": 114.34573, "lat": -8.44887, "name": "SUMBER ASIA TRADING COMPANY, CV", "province": "JAWA TIMUR", "district": "BANYUWANGI"}, {"lon": 114.2285, "lat": -8.29808, "name": "SUMBER MAKMUR", "province": "JAWA TIMUR", "district": "BANYUWANGI"}, {"lon": 114.340971, "lat": -8.441241, "name": "SUMBER YALASAMUDRA, PT", "province": "JAWA TIMUR", "district": "BANYUWANGI"}, {"lon": 112.76479, "lat": -7.35923, "name": "SURYA ALAM TUNGGAL, PT", "province": "JAWA TIMUR", "district": "BANYUWANGI"}, {"lon": 114.32774, "lat": -8.18505, "name": "SURYA JAYA, UD", "province": "JAWA TIMUR", "district": "BANYUWANGI"}, {"lon": 114.315485, "lat": -8.284126, "name": "TIMUR PUTRA SENTOSA, PT", "province": "JAWA TIMUR", "district": "BANYUWANGI"}, {"lon": 114.384389, "lat": -8.175918, "name": "TUNA INDONESIA MANDIRI, PT", "province": "JAWA TIMUR", "district": "BANYUWANGI"}, {"lon": 114.359863, "lat": -8.183384, "name": "WARISAN EURINDO, PT", "province": "JAWA TIMUR", "district": "BANYUWANGI"}, {"lon": 114.7105, "lat": -2.96341, "name": "AGRI BUMI SENTOSA, PT", "province": "KALIMANTAN SELATAN", "district": "BARITO KUALA"}, {"lon": 114.55522, "lat": -3.28458, "name": "BARITO GALANGAN NUSANTARA, P", "province": "KALIMANTAN SELATAN", "district": "BARITO KUALA"}, {"lon": 114.57349, "lat": -3.19557, "name": "BATOLA PRIMATAMA", "province": "KALIMANTAN SELATAN", "district": "BARITO KUALA"}, {"lon": 114.554092, "lat": -3.226892, "name": "DECORINDO INTI ALAM WOOD, PT", "province": "KALIMANTAN SELATAN", "district": "BARITO KUALA"}, {"lon": 114.53448, "lat": -3.34553, "name": "DHARMA PUTRA KALIMANTAN SEJATI, PT", "province": "KALIMANTAN SELATAN", "district": "BARITO KUALA"}, {"lon": 114.555666, "lat": -3.227892, "name": "GELORA CITRA KIMIA ABADI, PT", "province": "KALIMANTAN SELATAN", "district": "BARITO KUALA"}, {"lon": 114.55621, "lat": -3.28785, "name": "GOUKA INDO ENERGY, PT", "province": "KALIMANTAN SELATAN", "district": "BARITO KUALA"}, {"lon": 114.615201, "lat": -3.241499, "name": "INDOKA SAKTI, PT", "province": "KALIMANTAN SELATAN", "district": "BARITO KUALA"}, {"lon": 114.554878, "lat": -3.289301, "name": "TANJUNG RAYA PLYWOOD, PT", "province": "KALIMANTAN SELATAN", "district": "BARITO KUALA"}, {"lon": 114.555538, "lat": -3.22453, "name": "TANJUNG SELATAN MAKMUR JAYA,", "province": "KALIMANTAN SELATAN", "district": "BARITO KUALA"}, {"lon": 114.566111, "lat": -3.269722, "name": "USAHA BERSAMA, CV", "province": "KALIMANTAN SELATAN", "district": "BARITO KUALA"}, {"lon": 114.581237, "lat": -3.27154, "name": "YOLTAN SARI INDONESIA, PT", "province": "KALIMANTAN SELATAN", "district": "BARITO KUALA"}, {"lon": 114.822017, "lat": -1.779396, "name": "BUMI ASRI PASAMAN, PT", "province": "KALIMANTAN TENGAH", "district": "BARITO SELATAN"}, {"lon": 119.63555, "lat": -4.2936111, "name": "SINAR SURYA, UD", "province": "SULAWESI SELATAN", "district": "BARRU"}, {"lon": 119.680572, "lat": -4.399473, "name": "SINAR TERANG MADANI, PT", "province": "SULAWESI SELATAN", "district": "BARRU"}, {"lon": 104.135742, "lat": 1.1118915, "name": "ABLY METAL INDONESIA, PT", "province": "KEPULAUAN RIAU", "district": "BATAM"}, {"lon": 104.07375, "lat": 1.10853, "name": "ACCORD MANDIRI BATAM", "province": "KEPULAUAN RIAU", "district": "BATAM"}, {"lon": 104.0094444, "lat": 1.168611111, "name": "ACE INDUSTRIES INDONESIA, PT", "province": "KEPULAUAN RIAU", "district": "BATAM"}, {"lon": 104.06, "lat": 1.112777778, "name": "ACEPLAS INDONESIA, PT", "province": "KEPULAUAN RIAU", "district": "BATAM"}, {"lon": 104.0483743, "lat": 1.10904, "name": "ADHI MUKTI PERSADA", "province": "KEPULAUAN RIAU", "district": "BATAM"}, {"lon": 104.0119444, "lat": 1.176388889, "name": "ADI BATAMUNI JAYA, PT", "province": "KEPULAUAN RIAU", "district": "BATAM"}, {"lon": 104.0669071, "lat": 1.1070379, "name": "ADVANCED PACKAGING SOLUTION, PT", "province": "KEPULAUAN RIAU", "district": "BATAM"}, {"lon": 103.93796, "lat": 1.0359, "name": "AGROMAS BATAM PRATAMA, PT", "province": "KEPULAUAN RIAU", "district": "BATAM"}, {"lon": 104.035985, "lat": 1.056104, "name": "ALTECO CHEMICAL INDONESIA, PT", "province": "KEPULAUAN RIAU", "district": "BATAM"}, {"lon": 103.9388889, "lat": 1.046944444, "name": "ALUSTEEL ENGINEERING INDONESIA, PT", "province": "KEPULAUAN RIAU", "district": "BATAM"}, {"lon": 104.07387, "lat": 1.11077, "name": "AMBER KARYA, PT", "province": "KEPULAUAN RIAU", "district": "BATAM"}, {"lon": 104.04341, "lat": 1.11241, "name": "AMPWAY STATIONERY MANUFACTURING, PT", "province": "KEPULAUAN RIAU", "district": "BATAM"}, {"lon": 104.06508, "lat": 1.10985, "name": "AMTEK PLASTIC BATAM, PT", "province": "KEPULAUAN RIAU", "district": "BATAM"}, {"lon": 104.051526, "lat": 1.127914, "name": "ANUGRAH ABADI CITRARASA", "province": "KEPULAUAN RIAU", "district": "BATAM"}, {"lon": 104.0716249, "lat": 1.10735, "name": "AOHAI TECHNOLOGY INDONESIA", "province": "KEPULAUAN RIAU", "district": "BATAM"}, {"lon": 104.046071, "lat": 1.1094, "name": "APOLLO ANEKA PERSADA, PT", "province": "KEPULAUAN RIAU", "district": "BATAM"},